[
  {
    "geojson": {"type": "FeatureCollection", "features": [{"type": "Feature", "geometry": {"type": "Point", "coordinates": [-47.93000031, -15.77999973]}, "properties": {"ddd": 61, "estado": "Distrito Federal", "municipio": "Brasília", "codigo_ibge_estado": 53, "codigo_ibge_municipio": 5300108}}, {"type": "Feature", "geometry": {"type": "Point", "coordinates": [-48.88899994, -15.45699978]}, "properties": {"ddd": 62, "estado": "Goiás", "municipio": "Vila Propício", "codigo_ibge_estado": 52, "codigo_ibge_municipio": 5222302}}, {"type": "Feature", "geometry": {"type": "Point", "coordinates": [-47.05899811, -15.03800011]}, "properties": {"ddd": 61, "estado": "Goiás", "municipio": "Vila Boa", "codigo_ibge_estado": 52, "codigo_ibge_municipio": 5222203}}, {"type": "Feature", "geometry": {"type": "Point", "coordinates": [-49.80599976, -17.73500061]}, "properties": {"ddd": 64, "estado": "Goiás", "municipio": "Vicentinópolis", "codigo_ibge_estado": 52, "codigo_ibge_municipio": 5222054}}, {"type": "Feature", "geometry": {"type": "Point", "coordinates": [-48.51599884, -16.74200058]}, "properties": {"ddd": 62, "estado": "Goiás", "municipio": "Vianópolis", "codigo_ibge_estado": 52, "codigo_ibge_municipio": 5222005}}, {"type": "Feature", "geometry": {"type": "Point", "coordinates": [-49.63100052, -17.04500008]}, "properties": {"ddd": 62, "estado": "Goiás", "municipio": "Varjão", "codigo_ibge_estado": 52, "codigo_ibge_municipio": 5221908}}, {"type": "Feature", "geometry": {"type": "Point", "coordinates": [-47.97900009, -16.06599998]}, "properties": {"ddd": 61, "estado": "Goiás", "municipio": "Valparaíso de Goiás", "codigo_ibge_estado": 52, "codigo_ibge_municipio": 5221858}}, {"type": "Feature", "geometry": {"type": "Point", "coordinates": [-48.20299911, -17.46400070]}, "properties": {"ddd": 64, "estado": "Goiás", "municipio": "Urutaí", "codigo_ibge_estado": 52, "codigo_ibge_municipio": 5221809}}, {"type": "Feature", "geometry": {"type": "Point", "coordinates": [-49.68799973, -15.49800014]}, "properties": {"ddd": 62, "estado": "Goiás", "municipio": "Uruana", "codigo_ibge_estado": 52, "codigo_ibge_municipio": 5221700}}, {"type": "Feature", "geometry": {"type": "Point", "coordinates": [-49.14099884, -14.52499962]}, "properties": {"ddd": 62, "estado": "Goiás", "municipio": "Uruaçu", "codigo_ibge_estado": 52, "codigo_ibge_municipio": 5221601}}, {"type": "Feature", "geometry": {"type": "Point", "coordinates": [-49.92200089, -14.28499985]}, "properties": {"ddd": 62, "estado": "Goiás", "municipio": "Uirapuru", "codigo_ibge_estado": 52, "codigo_ibge_municipio": 5221577}}, {"type": "Feature", "geometry": {"type": "Point", "coordinates": [-50.30199814, -17.85300064]}, "properties": {"ddd": 64, "estado": "Goiás", "municipio": "Turvelândia", "codigo_ibge_estado": 52, "codigo_ibge_municipio": 5221551}}, {"type": "Feature", "geometry": {"type": "Point", "coordinates": [-50.13399887, -16.61400032]}, "properties": {"ddd": 64, "estado": "Goiás", "municipio": "Turvânia", "codigo_ibge_estado": 52, "codigo_ibge_municipio": 5221502}}, {"type": "Feature", "geometry": {"type": "Point", "coordinates": [-48.74000168, -13.50899982]}, "properties": {"ddd": 62, "estado": "Goiás", "municipio": "Trombas", "codigo_ibge_estado": 52, "codigo_ibge_municipio": 5221452}}, {"type": "Feature", "geometry": {"type": "Point", "coordinates": [-49.48899841, -16.64900017]}, "properties": {"ddd": 62, "estado": "Goiás", "municipio": "Trindade", "codigo_ibge_estado": 52, "codigo_ibge_municipio": 5221403}}, {"type": "Feature", "geometry": {"type": "Point", "coordinates": [-47.78300095, -18.35400009]}, "properties": {"ddd": 64, "estado": "Goiás", "municipio": "Três Ranchos", "codigo_ibge_estado": 52, "codigo_ibge_municipio": 5221304}}, {"type": "Feature", "geometry": {"type": "Point", "coordinates": [-49.08000183, -16.39500046]}, "properties": {"ddd": 62, "estado": "Goiás", "municipio": "Terezópolis de Goiás", "codigo_ibge_estado": 52, "codigo_ibge_municipio": 5221197}}, {"type": "Feature", "geometry": {"type": "Point", "coordinates": [-47.26499939, -13.77600002]}, "properties": {"ddd": 62, "estado": "Goiás", "municipio": "Teresina de Goiás", "codigo_ibge_estado": 52, "codigo_ibge_municipio": 5221080}}, {"type": "Feature", "geometry": {"type": "Point", "coordinates": [-49.60599899, -16.05400085]}, "properties": {"ddd": 62, "estado": "Goiás", "municipio": "Taquaral de Goiás", "codigo_ibge_estado": 52, "codigo_ibge_municipio": 5221007}}, {"type": "Feature", "geometry": {"type": "Point", "coordinates": [-46.48300171, -14.47399998]}, "properties": {"ddd": 62, "estado": "Goiás", "municipio": "Simolândia", "codigo_ibge_estado": 52, "codigo_ibge_municipio": 5220686}}, {"type": "Feature", "geometry": {"type": "Point", "coordinates": [-48.60800171, -16.65900040]}, "properties": {"ddd": 62, "estado": "Goiás", "municipio": "Silvânia", "codigo_ibge_estado": 52, "codigo_ibge_municipio": 5220603}}, {"type": "Feature", "geometry": {"type": "Point", "coordinates": [-51.96200180, -18.30599976]}, "properties": {"ddd": 64, "estado": "Goiás", "municipio": "Serranópolis", "codigo_ibge_estado": 52, "codigo_ibge_municipio": 5220504}}, {"type": "Feature", "geometry": {"type": "Point", "coordinates": [-49.09299850, -16.70800018]}, "properties": {"ddd": 62, "estado": "Goiás", "municipio": "Senador Canedo", "codigo_ibge_estado": 52, "codigo_ibge_municipio": 5220454}}, {"type": "Feature", "geometry": {"type": "Point", "coordinates": [-50.54399872, -18.99099922]}, "properties": {"ddd": 64, "estado": "Goiás", "municipio": "São Simão", "codigo_ibge_estado": 52, "codigo_ibge_municipio": 5220405}}, {"type": "Feature", "geometry": {"type": "Point", "coordinates": [-49.81800079, -15.35000038]}, "properties": {"ddd": 62, "estado": "Goiás", "municipio": "São Patrício", "codigo_ibge_estado": 52, "codigo_ibge_municipio": 5220280}}, {"type": "Feature", "geometry": {"type": "Point", "coordinates": [-48.66299820, -17.05900002]}, "properties": {"ddd": 62, "estado": "Goiás", "municipio": "São Miguel do Passa Quatro", "codigo_ibge_estado": 52, "codigo_ibge_municipio": 5220264}}, {"type": "Feature", "geometry": {"type": "Point", "coordinates": [-50.16299820, -13.27499962]}, "properties": {"ddd": 62, "estado": "Goiás", "municipio": "São Miguel do Araguaia", "codigo_ibge_estado": 52, "codigo_ibge_municipio": 5220207}}, {"type": "Feature", "geometry": {"type": "Point", "coordinates": [-49.32899857, -14.86299992]}, "properties": {"ddd": 62, "estado": "Goiás", "municipio": "São Luíz do Norte", "codigo_ibge_estado": 52, "codigo_ibge_municipio": 5220157}}, {"type": "Feature", "geometry": {"type": "Point", "coordinates": [-50.37200165, -16.52499962]}, "properties": {"ddd": 64, "estado": "Goiás", "municipio": "São Luís de Montes Belos", "codigo_ibge_estado": 52, "codigo_ibge_municipio": 5220108}}, {"type": "Feature", "geometry": {"type": "Point", "coordinates": [-50.40999985, -16.81500053]}, "properties": {"ddd": 64, "estado": "Goiás", "municipio": "São João da Paraúna", "codigo_ibge_estado": 52, "codigo_ibge_municipio": 5220058}}, {"type": "Feature", "geometry": {"type": "Point", "coordinates": [-49.26100159, -15.93099976]}, "properties": {"ddd": 62, "estado": "Goiás", "municipio": "São Francisco de Goiás", "codigo_ibge_estado": 52, "codigo_ibge_municipio": 5219902}}, {"type": "Feature", "geometry": {"type": "Point", "coordinates": [-46.31800079, -13.39799976]}, "properties": {"ddd": 62, "estado": "Goiás", "municipio": "São Domingos", "codigo_ibge_estado": 52, "codigo_ibge_municipio": 5219803}}, {"type": "Feature", "geometry": {"type": "Point", "coordinates": [-48.25500107, -15.93999958]}, "properties": {"ddd": 61, "estado": "Goiás", "municipio": "Santo Antônio do Descoberto", "codigo_ibge_estado": 52, "codigo_ibge_municipio": 5219753}}, {"type": "Feature", "geometry": {"type": "Point", "coordinates": [-49.31100082, -16.48399925]}, "properties": {"ddd": 62, "estado": "Goiás", "municipio": "Santo Antônio de Goiás", "codigo_ibge_estado": 52, "codigo_ibge_municipio": 5219738}}, {"type": "Feature", "geometry": {"type": "Point", "coordinates": [-50.63399887, -17.56100082]}, "properties": {"ddd": 64, "estado": "Goiás", "municipio": "Santo Antônio da Barra", "codigo_ibge_estado": 52, "codigo_ibge_municipio": 5219712}}, {"type": "Feature", "geometry": {"type": "Point", "coordinates": [-49.70600128, -14.43799973]}, "properties": {"ddd": 62, "estado": "Goiás", "municipio": "Santa Terezinha de Goiás", "codigo_ibge_estado": 52, "codigo_ibge_municipio": 5219704}}, {"type": "Feature", "geometry": {"type": "Point", "coordinates": [-49.01499939, -13.71399975]}, "properties": {"ddd": 62, "estado": "Goiás", "municipio": "Santa Tereza de Goiás", "codigo_ibge_estado": 52, "codigo_ibge_municipio": 5219605}}, {"type": "Feature", "geometry": {"type": "Point", "coordinates": [-49.49399948, -16.08499908]}, "properties": {"ddd": 62, "estado": "Goiás", "municipio": "Santa Rosa de Goiás", "codigo_ibge_estado": 52, "codigo_ibge_municipio": 5219506}}, {"type": "Feature", "geometry": {"type": "Point", "coordinates": [-49.11999893, -15.13500023]}, "properties": {"ddd": 62, "estado": "Goiás", "municipio": "Santa Rita do Novo Destino", "codigo_ibge_estado": 52, "codigo_ibge_municipio": 5219456}}, {"type": "Feature", "geometry": {"type": "Point", "coordinates": [-53.20500183, -17.32600021]}, "properties": {"ddd": 64, "estado": "Goiás", "municipio": "Santa Rita do Araguaia", "codigo_ibge_estado": 52, "codigo_ibge_municipio": 5219407}}, {"type": "Feature", "geometry": {"type": "Point", "coordinates": [-49.42699814, -15.29800034]}, "properties": {"ddd": 62, "estado": "Goiás", "municipio": "Santa Isabel", "codigo_ibge_estado": 52, "codigo_ibge_municipio": 5219357}}, {"type": "Feature", "geometry": {"type": "Point", "coordinates": [-50.59700012, -17.81399918]}, "properties": {"ddd": 64, "estado": "Goiás", "municipio": "Santa Helena de Goiás", "codigo_ibge_estado": 52, "codigo_ibge_municipio": 5219308}}, {"type": "Feature", "geometry": {"type": "Point", "coordinates": [-51.10599899, -15.76900005]}, "properties": {"ddd": 62, "estado": "Goiás", "municipio": "Santa Fé de Goiás", "codigo_ibge_estado": 52, "codigo_ibge_municipio": 5219258}}, {"type": "Feature", "geometry": {"type": "Point", "coordinates": [-48.48199844, -17.31599998]}, "properties": {"ddd": 64, "estado": "Goiás", "municipio": "Santa Cruz de Goiás", "codigo_ibge_estado": 52, "codigo_ibge_municipio": 5219209}}, {"type": "Feature", "geometry": {"type": "Point", "coordinates": [-49.69400024, -16.57399940]}, "properties": {"ddd": 62, "estado": "Goiás", "municipio": "Santa Bárbara de Goiás", "codigo_ibge_estado": 52, "codigo_ibge_municipio": 5219100}}, {"type": "Feature", "geometry": {"type": "Point", "coordinates": [-50.31399918, -16.19799995]}, "properties": {"ddd": 64, "estado": "Goiás", "municipio": "Sanclerlândia", "codigo_ibge_estado": 52, "codigo_ibge_municipio": 5219001}}, {"type": "Feature", "geometry": {"type": "Point", "coordinates": [-49.80300140, -15.16399956]}, "properties": {"ddd": 62, "estado": "Goiás", "municipio": "Rubiataba", "codigo_ibge_estado": 52, "codigo_ibge_municipio": 5218904}}, {"type": "Feature", "geometry": {"type": "Point", "coordinates": [-50.92800140, -17.79800034]}, "properties": {"ddd": 64, "estado": "Goiás", "municipio": "Rio Verde", "codigo_ibge_estado": 52, "codigo_ibge_municipio": 5218805}}, {"type": "Feature", "geometry": {"type": "Point", "coordinates": [-48.77299881, -17.77400017]}, "properties": {"ddd": 64, "estado": "Goiás", "municipio": "Rio Quente", "codigo_ibge_estado": 52, "codigo_ibge_municipio": 5218789}}, {"type": "Feature", "geometry": {"type": "Point", "coordinates": [-49.50999832, -15.44699955]}, "properties": {"ddd": 62, "estado": "Goiás", "municipio": "Rianápolis", "codigo_ibge_estado": 52, "codigo_ibge_municipio": 5218706}}, {"type": "Feature", "geometry": {"type": "Point", "coordinates": [-49.58399963, -15.31499958]}, "properties": {"ddd": 62, "estado": "Goiás", "municipio": "Rialma", "codigo_ibge_estado": 52, "codigo_ibge_municipio": 5218607}}, {"type": "Feature", "geometry": {"type": "Point", "coordinates": [-50.45199966, -18.44799995]}, "properties": {"ddd": 64, "estado": "Goiás", "municipio": "Quirinópolis", "codigo_ibge_estado": 52, "codigo_ibge_municipio": 5218508}}, {"type": "Feature", "geometry": {"type": "Point", "coordinates": [-49.24399948, -17.25099945]}, "properties": {"ddd": 64, "estado": "Goiás", "municipio": "Professor Jamil", "codigo_ibge_estado": 52, "codigo_ibge_municipio": 5218391}}, {"type": "Feature", "geometry": {"type": "Point", "coordinates": [-46.36899948, -14.09300041]}, "properties": {"ddd": 62, "estado": "Goiás", "municipio": "Posse", "codigo_ibge_estado": 52, "codigo_ibge_municipio": 5218300}}, {"type": "Feature", "geometry": {"type": "Point", "coordinates": [-52.67900085, -17.35400009]}, "properties": {"ddd": 64, "estado": "Goiás", "municipio": "Portelândia", "codigo_ibge_estado": 52, "codigo_ibge_municipio": 5218102}}, {"type": "Feature", "geometry": {"type": "Point", "coordinates": [-50.16400146, -17.81500053]}, "properties": {"ddd": 64, "estado": "Goiás", "municipio": "Porteirão", "codigo_ibge_estado": 52, "codigo_ibge_municipio": 5218052}}, {"type": "Feature", "geometry": {"type": "Point", "coordinates": [-49.14899826, -13.44099998]}, "properties": {"ddd": 62, "estado": "Goiás", "municipio": "Porangatu", "codigo_ibge_estado": 52, "codigo_ibge_municipio": 5218003}}, {"type": "Feature", "geometry": {"type": "Point", "coordinates": [-49.44900131, -17.52599907]}, "properties": {"ddd": 64, "estado": "Goiás", "municipio": "Pontalina", "codigo_ibge_estado": 52, "codigo_ibge_municipio": 5217708}}, {"type": "Feature", "geometry": {"type": "Point", "coordinates": [-47.61399841, -15.45300007]}, "properties": {"ddd": 61, "estado": "Goiás", "municipio": "Planaltina", "codigo_ibge_estado": 52, "codigo_ibge_municipio": 5217609}}, {"type": "Feature", "geometry": {"type": "Point", "coordinates": [-48.27999878, -17.30100060]}, "properties": {"ddd": 64, "estado": "Goiás", "municipio": "Pires do Rio", "codigo_ibge_estado": 52, "codigo_ibge_municipio": 5217401}}, {"type": "Feature", "geometry": {"type": "Point", "coordinates": [-48.95899963, -15.85200024]}, "properties": {"ddd": 62, "estado": "Goiás", "municipio": "Pirenópolis", "codigo_ibge_estado": 52, "codigo_ibge_municipio": 5217302}}, {"type": "Feature", "geometry": {"type": "Point", "coordinates": [-51.82199860, -16.42700005]}, "properties": {"ddd": 64, "estado": "Goiás", "municipio": "Piranhas", "codigo_ibge_estado": 52, "codigo_ibge_municipio": 5217203}}, {"type": "Feature", "geometry": {"type": "Point", "coordinates": [-49.01800156, -17.30299950]}, "properties": {"ddd": 64, "estado": "Goiás", "municipio": "Piracanjuba", "codigo_ibge_estado": 52, "codigo_ibge_municipio": 5217104}}, {"type": "Feature", "geometry": {"type": "Point", "coordinates": [-49.57799911, -14.76399994]}, "properties": {"ddd": 62, "estado": "Goiás", "municipio": "Pilar de Goiás", "codigo_ibge_estado": 52, "codigo_ibge_municipio": 5216908}}, {"type": "Feature", "geometry": {"type": "Point", "coordinates": [-49.33800125, -16.09499931]}, "properties": {"ddd": 62, "estado": "Goiás", "municipio": "Petrolina de Goiás", "codigo_ibge_estado": 52, "codigo_ibge_municipio": 5216809}}, {"type": "Feature", "geometry": {"type": "Point", "coordinates": [-52.06399918, -17.52899933]}, "properties": {"ddd": 64, "estado": "Goiás", "municipio": "Perolândia", "codigo_ibge_estado": 52, "codigo_ibge_municipio": 5216452}}, {"type": "Feature", "geometry": {"type": "Point", "coordinates": [-50.44900131, -16.94799995]}, "properties": {"ddd": 64, "estado": "Goiás", "municipio": "Paraúna", "codigo_ibge_estado": 52, "codigo_ibge_municipio": 5216403}}, {"type": "Feature", "geometry": {"type": "Point", "coordinates": [-50.65399933, -18.91600037]}, "properties": {"ddd": 64, "estado": "Goiás", "municipio": "Paranaiguara", "codigo_ibge_estado": 52, "codigo_ibge_municipio": 5216304}}, {"type": "Feature", "geometry": {"type": "Point", "coordinates": [-49.35400009, -18.17700005]}, "properties": {"ddd": 64, "estado": "Goiás", "municipio": "Panamá", "codigo_ibge_estado": 52, "codigo_ibge_municipio": 5216007}}, {"type": "Feature", "geometry": {"type": "Point", "coordinates": [-50.16500092, -16.79599953]}, "properties": {"ddd": 64, "estado": "Goiás", "municipio": "Palminópolis", "codigo_ibge_estado": 52, "codigo_ibge_municipio": 5215900}}, {"type": "Feature", "geometry": {"type": "Point", "coordinates": [-48.42399979, -17.32399940]}, "properties": {"ddd": 64, "estado": "Goiás", "municipio": "Palmelo", "codigo_ibge_estado": 52, "codigo_ibge_municipio": 5215801}}, {"type": "Feature", "geometry": {"type": "Point", "coordinates": [-49.92599869, -16.80500031]}, "properties": {"ddd": 64, "estado": "Goiás", "municipio": "Palmeiras de Goiás", "codigo_ibge_estado": 52, "codigo_ibge_municipio": 5215702}}, {"type": "Feature", "geometry": {"type": "Point", "coordinates": [-51.53300095, -16.73299980]}, "properties": {"ddd": 64, "estado": "Goiás", "municipio": "Palestina de Goiás", "codigo_ibge_estado": 52, "codigo_ibge_municipio": 5215652}}, {"type": "Feature", "geometry": {"type": "Point", "coordinates": [-48.28400040, -15.15999985]}, "properties": {"ddd": 61, "estado": "Goiás", "municipio": "Padre Bernardo", "codigo_ibge_estado": 52, "codigo_ibge_municipio": 5215603}}, {"type": "Feature", "geometry": {"type": "Point", "coordinates": [-47.83900070, -18.23399925]}, "properties": {"ddd": 64, "estado": "Goiás", "municipio": "Ouvidor", "codigo_ibge_estado": 52, "codigo_ibge_municipio": 5215504}}, {"type": "Feature", "geometry": {"type": "Point", "coordinates": [-49.19300079, -16.21999931]}, "properties": {"ddd": 62, "estado": "Goiás", "municipio": "Ouro Verde de Goiás", "codigo_ibge_estado": 52, "codigo_ibge_municipio": 5215405}}, {"type": "Feature", "geometry": {"type": "Point", "coordinates": [-48.29600143, -17.03100014]}, "properties": {"ddd": 64, "estado": "Goiás", "municipio": "Orizona", "codigo_ibge_estado": 52, "codigo_ibge_municipio": 5215306}}, {"type": "Feature", "geometry": {"type": "Point", "coordinates": [-49.50400162, -13.24400043]}, "properties": {"ddd": 62, "estado": "Goiás", "municipio": "Novo Planalto", "codigo_ibge_estado": 52, "codigo_ibge_municipio": 5215256}}, {"type": "Feature", "geometry": {"type": "Point", "coordinates": [-48.03900146, -16.05900002]}, "properties": {"ddd": 61, "estado": "Goiás", "municipio": "Novo Gama", "codigo_ibge_estado": 52, "codigo_ibge_municipio": 5215231}}, {"type": "Feature", "geometry": {"type": "Point", "coordinates": [-50.71099854, -16.03400040]}, "properties": {"ddd": 62, "estado": "Goiás", "municipio": "Novo Brasil", "codigo_ibge_estado": 52, "codigo_ibge_municipio": 5215207}}, {"type": "Feature", "geometry": {"type": "Point", "coordinates": [-49.32300186, -16.37100029]}, "properties": {"ddd": 62, "estado": "Goiás", "municipio": "Nova Veneza", "codigo_ibge_estado": 52, "codigo_ibge_municipio": 5215009}}, {"type": "Feature", "geometry": {"type": "Point", "coordinates": [-46.88000107, -13.74199963]}, "properties": {"ddd": 62, "estado": "Goiás", "municipio": "Nova Roma", "codigo_ibge_estado": 52, "codigo_ibge_municipio": 5214903}}, {"type": "Feature", "geometry": {"type": "Point", "coordinates": [-49.38899994, -14.28899956]}, "properties": {"ddd": 62, "estado": "Goiás", "municipio": "Nova Iguaçu de Goiás", "codigo_ibge_estado": 52, "codigo_ibge_municipio": 5214879}}, {"type": "Feature", "geometry": {"type": "Point", "coordinates": [-49.57099915, -15.14299965]}, "properties": {"ddd": 62, "estado": "Goiás", "municipio": "Nova Glória", "codigo_ibge_estado": 52, "codigo_ibge_municipio": 5214861}}, {"type": "Feature", "geometry": {"type": "Point", "coordinates": [-50.32699966, -14.09899998]}, "properties": {"ddd": 62, "estado": "Goiás", "municipio": "Nova Crixás", "codigo_ibge_estado": 52, "codigo_ibge_municipio": 5214838}}, {"type": "Feature", "geometry": {"type": "Point", "coordinates": [-48.25500107, -18.05900002]}, "properties": {"ddd": 64, "estado": "Goiás", "municipio": "Nova Aurora", "codigo_ibge_estado": 52, "codigo_ibge_municipio": 5214804}}, {"type": "Feature", "geometry": {"type": "Point", "coordinates": [-49.89599991, -15.02200031]}, "properties": {"ddd": 62, "estado": "Goiás", "municipio": "Nova América", "codigo_ibge_estado": 52, "codigo_ibge_municipio": 5214705}}, {"type": "Feature", "geometry": {"type": "Point", "coordinates": [-48.45999908, -14.47399998]}, "properties": {"ddd": 62, "estado": "Goiás", "municipio": "Niquelândia", "codigo_ibge_estado": 52, "codigo_ibge_municipio": 5214606}}, {"type": "Feature", "geometry": {"type": "Point", "coordinates": [-49.21900177, -16.40600014]}, "properties": {"ddd": 62, "estado": "Goiás", "municipio": "Nerópolis", "codigo_ibge_estado": 52, "codigo_ibge_municipio": 5214507}}, {"type": "Feature", "geometry": {"type": "Point", "coordinates": [-49.88199997, -16.58200073]}, "properties": {"ddd": 64, "estado": "Goiás", "municipio": "Nazário", "codigo_ibge_estado": 52, "codigo_ibge_municipio": 5214408}}, {"type": "Feature", "geometry": {"type": "Point", "coordinates": [-49.27500153, -13.73299980]}, "properties": {"ddd": 62, "estado": "Goiás", "municipio": "Mutunópolis", "codigo_ibge_estado": 52, "codigo_ibge_municipio": 5214101}}, {"type": "Feature", "geometry": {"type": "Point", "coordinates": [-50.28099823, -13.77600002]}, "properties": {"ddd": 62, "estado": "Goiás", "municipio": "Mundo Novo", "codigo_ibge_estado": 52, "codigo_ibge_municipio": 5214051}}, {"type": "Feature", "geometry": {"type": "Point", "coordinates": [-50.57099915, -14.74499989]}, "properties": {"ddd": 62, "estado": "Goiás", "municipio": "Mozarlândia", "codigo_ibge_estado": 52, "codigo_ibge_municipio": 5214002}}, {"type": "Feature", "geometry": {"type": "Point", "coordinates": [-50.21500015, -16.12700081]}, "properties": {"ddd": 64, "estado": "Goiás", "municipio": "Mossâmedes", "codigo_ibge_estado": 52, "codigo_ibge_municipio": 5213905}}, {"type": "Feature", "geometry": {"type": "Point", "coordinates": [-50.05699921, -15.32100010]}, "properties": {"ddd": 62, "estado": "Goiás", "municipio": "Morro Agudo de Goiás", "codigo_ibge_estado": 52, "codigo_ibge_municipio": 5213855}}, {"type": "Feature", "geometry": {"type": "Point", "coordinates": [-49.10100174, -17.73200035]}, "properties": {"ddd": 64, "estado": "Goiás", "municipio": "Morrinhos", "codigo_ibge_estado": 52, "codigo_ibge_municipio": 5213806}}, {"type": "Feature", "geometry": {"type": "Point", "coordinates": [-48.60699844, -13.11299992]}, "properties": {"ddd": 62, "estado": "Goiás", "municipio": "Montividiu do Norte", "codigo_ibge_estado": 52, "codigo_ibge_municipio": 5213772}}, {"type": "Feature", "geometry": {"type": "Point", "coordinates": [-51.17499924, -17.44400024]}, "properties": {"ddd": 64, "estado": "Goiás", "municipio": "Montividiu", "codigo_ibge_estado": 52, "codigo_ibge_municipio": 5213756}}, {"type": "Feature", "geometry": {"type": "Point", "coordinates": [-51.39699936, -16.00799942]}, "properties": {"ddd": 62, "estado": "Goiás", "municipio": "Montes Claros de Goiás", "codigo_ibge_estado": 52, "codigo_ibge_municipio": 5213707}}, {"type": "Feature", "geometry": {"type": "Point", "coordinates": [-46.90100098, -13.25599957]}, "properties": {"ddd": 62, "estado": "Goiás", "municipio": "Monte Alegre de Goiás", "codigo_ibge_estado": 52, "codigo_ibge_municipio": 5213509}}, {"type": "Feature", "geometry": {"type": "Point", "coordinates": [-50.73899841, -16.54599953]}, "properties": {"ddd": 64, "estado": "Goiás", "municipio": "Moiporá", "codigo_ibge_estado": 52, "codigo_ibge_municipio": 5213400}}, {"type": "Feature", "geometry": {"type": "Point", "coordinates": [-52.55099869, -17.56900024]}, "properties": {"ddd": 64, "estado": "Goiás", "municipio": "Mineiros", "codigo_ibge_estado": 52, "codigo_ibge_municipio": 5213103}}, {"type": "Feature", "geometry": {"type": "Point", "coordinates": [-48.22000122, -13.53299999]}, "properties": {"ddd": 62, "estado": "Goiás", "municipio": "Minaçu", "codigo_ibge_estado": 52, "codigo_ibge_municipio": 5213087}}, {"type": "Feature", "geometry": {"type": "Point", "coordinates": [-48.16099930, -15.05599976]}, "properties": {"ddd": 62, "estado": "Goiás", "municipio": "Mimoso de Goiás", "codigo_ibge_estado": 52, "codigo_ibge_municipio": 5213053}}, {"type": "Feature", "geometry": {"type": "Point", "coordinates": [-50.33900070, -17.97100067]}, "properties": {"ddd": 64, "estado": "Goiás", "municipio": "Maurilândia", "codigo_ibge_estado": 52, "codigo_ibge_municipio": 5213004}}, {"type": "Feature", "geometry": {"type": "Point", "coordinates": [-50.74599838, -15.44400024]}, "properties": {"ddd": 62, "estado": "Goiás", "municipio": "Matrinchã", "codigo_ibge_estado": 52, "codigo_ibge_municipio": 5212956}}, {"type": "Feature", "geometry": {"type": "Point", "coordinates": [-48.64099884, -17.98100090]}, "properties": {"ddd": 64, "estado": "Goiás", "municipio": "Marzagão", "codigo_ibge_estado": 52, "codigo_ibge_municipio": 5212907}}, {"type": "Feature", "geometry": {"type": "Point", "coordinates": [-49.17800140, -14.01700020]}, "properties": {"ddd": 62, "estado": "Goiás", "municipio": "Mara Rosa", "codigo_ibge_estado": 52, "codigo_ibge_municipio": 5212808}}, {"type": "Feature", "geometry": {"type": "Point", "coordinates": [-46.11299896, -14.48799992]}, "properties": {"ddd": 62, "estado": "Goiás", "municipio": "Mambaí", "codigo_ibge_estado": 52, "codigo_ibge_municipio": 5212709}}, {"type": "Feature", "geometry": {"type": "Point", "coordinates": [-49.49100113, -17.29899979]}, "properties": {"ddd": 64, "estado": "Goiás", "municipio": "Mairipotaba", "codigo_ibge_estado": 52, "codigo_ibge_municipio": 5212600}}, {"type": "Feature", "geometry": {"type": "Point", "coordinates": [-47.95000076, -16.25300026]}, "properties": {"ddd": 61, "estado": "Goiás", "municipio": "Luziânia", "codigo_ibge_estado": 52, "codigo_ibge_municipio": 5212501}}, {"type": "Feature", "geometry": {"type": "Point", "coordinates": [-48.74399948, -16.61899948]}, "properties": {"ddd": 62, "estado": "Goiás", "municipio": "Leopoldo de Bulhões", "codigo_ibge_estado": 52, "codigo_ibge_municipio": 5212303}}, {"type": "Feature", "geometry": {"type": "Point", "coordinates": [-51.39099884, -19.18300056]}, "properties": {"ddd": 64, "estado": "Goiás", "municipio": "Lagoa Santa", "codigo_ibge_estado": 52, "codigo_ibge_municipio": 5212253}}, {"type": "Feature", "geometry": {"type": "Point", "coordinates": [-50.86800003, -15.86499977]}, "properties": {"ddd": 62, "estado": "Goiás", "municipio": "Jussara", "codigo_ibge_estado": 52, "codigo_ibge_municipio": 5212204}}, {"type": "Feature", "geometry": {"type": "Point", "coordinates": [-49.61399841, -17.80500031]}, "properties": {"ddd": 64, "estado": "Goiás", "municipio": "Joviânia", "codigo_ibge_estado": 52, "codigo_ibge_municipio": 5212105}}, {"type": "Feature", "geometry": {"type": "Point", "coordinates": [-49.37400055, -15.95100021]}, "properties": {"ddd": 62, "estado": "Goiás", "municipio": "Jesúpolis", "codigo_ibge_estado": 52, "codigo_ibge_municipio": 5212055}}, {"type": "Feature", "geometry": {"type": "Point", "coordinates": [-50.95299911, -16.17799950]}, "properties": {"ddd": 64, "estado": "Goiás", "municipio": "Jaupaci", "codigo_ibge_estado": 52, "codigo_ibge_municipio": 5212006}}, {"type": "Feature", "geometry": {"type": "Point", "coordinates": [-51.71400070, -17.88100052]}, "properties": {"ddd": 64, "estado": "Goiás", "municipio": "Jataí", "codigo_ibge_estado": 52, "codigo_ibge_municipio": 5211909}}, {"type": "Feature", "geometry": {"type": "Point", "coordinates": [-49.33399963, -15.75699997]}, "properties": {"ddd": 62, "estado": "Goiás", "municipio": "Jaraguá", "codigo_ibge_estado": 52, "codigo_ibge_municipio": 5211800}}, {"type": "Feature", "geometry": {"type": "Point", "coordinates": [-50.14599991, -17.04899979]}, "properties": {"ddd": 64, "estado": "Goiás", "municipio": "Jandaia", "codigo_ibge_estado": 52, "codigo_ibge_municipio": 5211701}}, {"type": "Feature", "geometry": {"type": "Point", "coordinates": [-50.79399872, -16.60199928]}, "properties": {"ddd": 64, "estado": "Goiás", "municipio": "Ivolândia", "codigo_ibge_estado": 52, "codigo_ibge_municipio": 5211602}}, {"type": "Feature", "geometry": {"type": "Point", "coordinates": [-49.21799850, -18.42000008]}, "properties": {"ddd": 64, "estado": "Goiás", "municipio": "Itumbiara", "codigo_ibge_estado": 52, "codigo_ibge_municipio": 5211503}}, {"type": "Feature", "geometry": {"type": "Point", "coordinates": [-49.60800171, -16.20100021]}, "properties": {"ddd": 62, "estado": "Goiás", "municipio": "Itauçu", "codigo_ibge_estado": 52, "codigo_ibge_municipio": 5211404}}, {"type": "Feature", "geometry": {"type": "Point", "coordinates": [-51.34799957, -18.76899910]}, "properties": {"ddd": 64, "estado": "Goiás", "municipio": "Itarumã", "codigo_ibge_estado": 52, "codigo_ibge_municipio": 5211305}}, {"type": "Feature", "geometry": {"type": "Point", "coordinates": [-49.94900131, -15.56200027]}, "properties": {"ddd": 62, "estado": "Goiás", "municipio": "Itapuranga", "codigo_ibge_estado": 52, "codigo_ibge_municipio": 5211206}}, {"type": "Feature", "geometry": {"type": "Point", "coordinates": [-50.61299896, -15.82299995]}, "properties": {"ddd": 62, "estado": "Goiás", "municipio": "Itapirapuã", "codigo_ibge_estado": 52, "codigo_ibge_municipio": 5211008}}, {"type": "Feature", "geometry": {"type": "Point", "coordinates": [-49.54899979, -14.95100021]}, "properties": {"ddd": 62, "estado": "Goiás", "municipio": "Itapaci", "codigo_ibge_estado": 52, "codigo_ibge_municipio": 5210901}}, {"type": "Feature", "geometry": {"type": "Point", "coordinates": [-51.54399872, -19.06699944]}, "properties": {"ddd": 64, "estado": "Goiás", "municipio": "Itajá", "codigo_ibge_estado": 52, "codigo_ibge_municipio": 5210802}}, {"type": "Feature", "geometry": {"type": "Point", "coordinates": [-49.63399887, -15.75800037]}, "properties": {"ddd": 62, "estado": "Goiás", "municipio": "Itaguaru", "codigo_ibge_estado": 52, "codigo_ibge_municipio": 5210604}}, {"type": "Feature", "geometry": {"type": "Point", "coordinates": [-49.60400009, -15.91899967]}, "properties": {"ddd": 62, "estado": "Goiás", "municipio": "Itaguari", "codigo_ibge_estado": 52, "codigo_ibge_municipio": 5210562}}, {"type": "Feature", "geometry": {"type": "Point", "coordinates": [-49.81000137, -16.02000046]}, "properties": {"ddd": 62, "estado": "Goiás", "municipio": "Itaberaí", "codigo_ibge_estado": 52, "codigo_ibge_municipio": 5210406}}, {"type": "Feature", "geometry": {"type": "Point", "coordinates": [-50.90800095, -16.31800079]}, "properties": {"ddd": 64, "estado": "Goiás", "municipio": "Israelândia", "codigo_ibge_estado": 52, "codigo_ibge_municipio": 5210307}}, {"type": "Feature", "geometry": {"type": "Point", "coordinates": [-51.11800003, -16.44199944]}, "properties": {"ddd": 64, "estado": "Goiás", "municipio": "Iporá", "codigo_ibge_estado": 52, "codigo_ibge_municipio": 5210208}}, {"type": "Feature", "geometry": {"type": "Point", "coordinates": [-49.66999817, -15.17000008]}, "properties": {"ddd": 62, "estado": "Goiás", "municipio": "Ipiranga de Goiás", "codigo_ibge_estado": 52, "codigo_ibge_municipio": 5210158}}, {"type": "Feature", "geometry": {"type": "Point", "coordinates": [-48.15999985, -17.72200012]}, "properties": {"ddd": 64, "estado": "Goiás", "municipio": "Ipameri", "codigo_ibge_estado": 52, "codigo_ibge_municipio": 5210109}}, {"type": "Feature", "geometry": {"type": "Point", "coordinates": [-49.49599838, -16.35799980]}, "properties": {"ddd": 62, "estado": "Goiás", "municipio": "Inhumas", "codigo_ibge_estado": 52, "codigo_ibge_municipio": 5210000}}, {"type": "Feature", "geometry": {"type": "Point", "coordinates": [-49.98699951, -17.14200020]}, "properties": {"ddd": 64, "estado": "Goiás", "municipio": "Indiara", "codigo_ibge_estado": 52, "codigo_ibge_municipio": 5209952}}, {"type": "Feature", "geometry": {"type": "Point", "coordinates": [-49.98699951, -18.48800087]}, "properties": {"ddd": 64, "estado": "Goiás", "municipio": "Inaciolândia", "codigo_ibge_estado": 52, "codigo_ibge_municipio": 5209937}}, {"type": "Feature", "geometry": {"type": "Point", "coordinates": [-46.63199997, -14.09599972]}, "properties": {"ddd": 62, "estado": "Goiás", "municipio": "Iaciara", "codigo_ibge_estado": 52, "codigo_ibge_municipio": 5209903}}, {"type": "Feature", "geometry": {"type": "Point", "coordinates": [-49.46500015, -14.72399998]}, "properties": {"ddd": 62, "estado": "Goiás", "municipio": "Hidrolina", "codigo_ibge_estado": 52, "codigo_ibge_municipio": 5209804}}, {"type": "Feature", "geometry": {"type": "Point", "coordinates": [-49.22900009, -16.96199989]}, "properties": {"ddd": 62, "estado": "Goiás", "municipio": "Hidrolândia", "codigo_ibge_estado": 52, "codigo_ibge_municipio": 5209705}}, {"type": "Feature", "geometry": {"type": "Point", "coordinates": [-49.82899857, -15.71899986]}, "properties": {"ddd": 62, "estado": "Goiás", "municipio": "Heitoraí", "codigo_ibge_estado": 52, "codigo_ibge_municipio": 5209606}}, {"type": "Feature", "geometry": {"type": "Point", "coordinates": [-49.70199966, -14.73200035]}, "properties": {"ddd": 62, "estado": "Goiás", "municipio": "Guarinos", "codigo_ibge_estado": 52, "codigo_ibge_municipio": 5209457}}, {"type": "Feature", "geometry": {"type": "Point", "coordinates": [-46.47999954, -13.93599987]}, "properties": {"ddd": 62, "estado": "Goiás", "municipio": "Guarani de Goiás", "codigo_ibge_estado": 52, "codigo_ibge_municipio": 5209408}}, {"type": "Feature", "geometry": {"type": "Point", "coordinates": [-50.02399826, -15.61400032]}, "properties": {"ddd": 62, "estado": "Goiás", "municipio": "Guaraíta", "codigo_ibge_estado": 52, "codigo_ibge_municipio": 5209291}}, {"type": "Feature", "geometry": {"type": "Point", "coordinates": [-49.53200150, -16.83099937]}, "properties": {"ddd": 62, "estado": "Goiás", "municipio": "Guapó", "codigo_ibge_estado": 52, "codigo_ibge_municipio": 5209200}}, {"type": "Feature", "geometry": {"type": "Point", "coordinates": [-50.06600189, -18.64200020]}, "properties": {"ddd": 64, "estado": "Goiás", "municipio": "Gouvelândia", "codigo_ibge_estado": 52, "codigo_ibge_municipio": 5209150}}, {"type": "Feature", "geometry": {"type": "Point", "coordinates": [-49.35699844, -18.01300049]}, "properties": {"ddd": 64, "estado": "Goiás", "municipio": "Goiatuba", "codigo_ibge_estado": 52, "codigo_ibge_municipio": 5209101}}, {"type": "Feature", "geometry": {"type": "Point", "coordinates": [-50.13999939, -15.93400002]}, "properties": {"ddd": 62, "estado": "Goiás", "municipio": "Goiás", "codigo_ibge_estado": 52, "codigo_ibge_municipio": 5208905}}, {"type": "Feature", "geometry": {"type": "Point", "coordinates": [-49.42599869, -16.49600029]}, "properties": {"ddd": 62, "estado": "Goiás", "municipio": "Goianira", "codigo_ibge_estado": 52, "codigo_ibge_municipio": 5208806}}, {"type": "Feature", "geometry": {"type": "Point", "coordinates": [-49.25400162, -16.67900085]}, "properties": {"ddd": 62, "estado": "Goiás", "municipio": "Goiânia", "codigo_ibge_estado": 52, "codigo_ibge_municipio": 5208707}}, {"type": "Feature", "geometry": {"type": "Point", "coordinates": [-49.11700058, -15.31700039]}, "properties": {"ddd": 62, "estado": "Goiás", "municipio": "Goianésia", "codigo_ibge_estado": 52, "codigo_ibge_municipio": 5208608}}, {"type": "Feature", "geometry": {"type": "Point", "coordinates": [-48.08499908, -18.13299942]}, "properties": {"ddd": 64, "estado": "Goiás", "municipio": "Goiandira", "codigo_ibge_estado": 52, "codigo_ibge_municipio": 5208509}}, {"type": "Feature", "geometry": {"type": "Point", "coordinates": [-49.02399826, -16.51099968]}, "properties": {"ddd": 62, "estado": "Goiás", "municipio": "Goianápolis", "codigo_ibge_estado": 52, "codigo_ibge_municipio": 5208400}}, {"type": "Feature", "geometry": {"type": "Point", "coordinates": [-46.39300156, -13.29500008]}, "properties": {"ddd": 62, "estado": "Goiás", "municipio": "Divinópolis de Goiás", "codigo_ibge_estado": 52, "codigo_ibge_municipio": 5208301}}, {"type": "Feature", "geometry": {"type": "Point", "coordinates": [-48.67010117, -16.46349907]}, "properties": {"ddd": 62, "estado": "Goiás", "municipio": "Gameleira de Goiás", "codigo_ibge_estado": 52, "codigo_ibge_municipio": 5208152}}, {"type": "Feature", "geometry": {"type": "Point", "coordinates": [-48.88199997, -13.65400028]}, "properties": {"ddd": 62, "estado": "Goiás", "municipio": "Formoso", "codigo_ibge_estado": 52, "codigo_ibge_municipio": 5208103}}, {"type": "Feature", "geometry": {"type": "Point", "coordinates": [-47.33399963, -15.53699970]}, "properties": {"ddd": 61, "estado": "Goiás", "municipio": "Formosa", "codigo_ibge_estado": 52, "codigo_ibge_municipio": 5208004}}, {"type": "Feature", "geometry": {"type": "Point", "coordinates": [-47.04999924, -14.44900036]}, "properties": {"ddd": 62, "estado": "Goiás", "municipio": "Flores de Goiás", "codigo_ibge_estado": 52, "codigo_ibge_municipio": 5207907}}, {"type": "Feature", "geometry": {"type": "Point", "coordinates": [-50.30500031, -16.58200073]}, "properties": {"ddd": 64, "estado": "Goiás", "municipio": "Firminópolis", "codigo_ibge_estado": 52, "codigo_ibge_municipio": 5207808}}, {"type": "Feature", "geometry": {"type": "Point", "coordinates": [-50.77999878, -16.18300056]}, "properties": {"ddd": 62, "estado": "Goiás", "municipio": "Fazenda Nova", "codigo_ibge_estado": 52, "codigo_ibge_municipio": 5207600}}, {"type": "Feature", "geometry": {"type": "Point", "coordinates": [-50.36100006, -15.44600010]}, "properties": {"ddd": 62, "estado": "Goiás", "municipio": "Faina", "codigo_ibge_estado": 52, "codigo_ibge_municipio": 5207535}}, {"type": "Feature", "geometry": {"type": "Point", "coordinates": [-49.07300186, -13.86800003]}, "properties": {"ddd": 62, "estado": "Goiás", "municipio": "Estrela do Norte", "codigo_ibge_estado": 52, "codigo_ibge_municipio": 5207501}}, {"type": "Feature", "geometry": {"type": "Point", "coordinates": [-49.93099976, -17.33900070]}, "properties": {"ddd": 64, "estado": "Goiás", "municipio": "Edéia", "codigo_ibge_estado": 52, "codigo_ibge_municipio": 5207402}}, {"type": "Feature", "geometry": {"type": "Point", "coordinates": [-49.66500092, -17.42600060]}, "properties": {"ddd": 64, "estado": "Goiás", "municipio": "Edealina", "codigo_ibge_estado": 52, "codigo_ibge_municipio": 5207352}}, {"type": "Feature", "geometry": {"type": "Point", "coordinates": [-52.31900024, -16.71999931]}, "properties": {"ddd": 64, "estado": "Goiás", "municipio": "Doverlândia", "codigo_ibge_estado": 52, "codigo_ibge_municipio": 5207253}}, {"type": "Feature", "geometry": {"type": "Point", "coordinates": [-51.25600052, -16.23399925]}, "properties": {"ddd": 64, "estado": "Goiás", "municipio": "Diorama", "codigo_ibge_estado": 52, "codigo_ibge_municipio": 5207105}}, {"type": "Feature", "geometry": {"type": "Point", "coordinates": [-47.56200027, -18.15299988]}, "properties": {"ddd": 64, "estado": "Goiás", "municipio": "Davinópolis", "codigo_ibge_estado": 52, "codigo_ibge_municipio": 5206909}}, {"type": "Feature", "geometry": {"type": "Point", "coordinates": [-49.36999893, -16.25300026]}, "properties": {"ddd": 62, "estado": "Goiás", "municipio": "Damolândia", "codigo_ibge_estado": 52, "codigo_ibge_municipio": 5206800}}, {"type": "Feature", "geometry": {"type": "Point", "coordinates": [-46.17699814, -14.56400013]}, "properties": {"ddd": 62, "estado": "Goiás", "municipio": "Damianópolis", "codigo_ibge_estado": 52, "codigo_ibge_municipio": 5206701}}, {"type": "Feature", "geometry": {"type": "Point", "coordinates": [-48.15100098, -18.26300049]}, "properties": {"ddd": 64, "estado": "Goiás", "municipio": "Cumari", "codigo_ibge_estado": 52, "codigo_ibge_municipio": 5206602}}, {"type": "Feature", "geometry": {"type": "Point", "coordinates": [-49.38100052, -17.28800011]}, "properties": {"ddd": 64, "estado": "Goiás", "municipio": "Cromínia", "codigo_ibge_estado": 52, "codigo_ibge_municipio": 5206503}}, {"type": "Feature", "geometry": {"type": "Point", "coordinates": [-49.96900177, -14.54899979]}, "properties": {"ddd": 62, "estado": "Goiás", "municipio": "Crixás", "codigo_ibge_estado": 52, "codigo_ibge_municipio": 5206404}}, {"type": "Feature", "geometry": {"type": "Point", "coordinates": [-48.70399857, -17.19899940]}, "properties": {"ddd": 64, "estado": "Goiás", "municipio": "Cristianópolis", "codigo_ibge_estado": 52, "codigo_ibge_municipio": 5206305}}, {"type": "Feature", "geometry": {"type": "Point", "coordinates": [-47.61399841, -16.76899910]}, "properties": {"ddd": 61, "estado": "Goiás", "municipio": "Cristalina", "codigo_ibge_estado": 52, "codigo_ibge_municipio": 5206206}}, {"type": "Feature", "geometry": {"type": "Point", "coordinates": [-48.56200027, -18.14200020]}, "properties": {"ddd": 64, "estado": "Goiás", "municipio": "Corumbaíba", "codigo_ibge_estado": 52, "codigo_ibge_municipio": 5205901}}, {"type": "Feature", "geometry": {"type": "Point", "coordinates": [-48.80899811, -15.92399979]}, "properties": {"ddd": 62, "estado": "Goiás", "municipio": "Corumbá de Goiás", "codigo_ibge_estado": 52, "codigo_ibge_municipio": 5205802}}, {"type": "Feature", "geometry": {"type": "Point", "coordinates": [-50.54800034, -16.29400063]}, "properties": {"ddd": 64, "estado": "Goiás", "municipio": "Córrego do Ouro", "codigo_ibge_estado": 52, "codigo_ibge_municipio": 5205703}}, {"type": "Feature", "geometry": {"type": "Point", "coordinates": [-48.07799911, -14.15100002]}, "properties": {"ddd": 62, "estado": "Goiás", "municipio": "Colinas do Sul", "codigo_ibge_estado": 52, "codigo_ibge_municipio": 5205521}}, {"type": "Feature", "geometry": {"type": "Point", "coordinates": [-48.77600098, -15.79399967]}, "properties": {"ddd": 62, "estado": "Goiás", "municipio": "Cocalzinho de Goiás", "codigo_ibge_estado": 52, "codigo_ibge_municipio": 5205513}}, {"type": "Feature", "geometry": {"type": "Point", "coordinates": [-47.92499924, -16.07699966]}, "properties": {"ddd": 61, "estado": "Goiás", "municipio": "Cidade Ocidental", "codigo_ibge_estado": 52, "codigo_ibge_municipio": 5205497}}, {"type": "Feature", "geometry": {"type": "Point", "coordinates": [-52.54899979, -18.40800095]}, "properties": {"ddd": 64, "estado": "Goiás", "municipio": "Chapadão do Céu", "codigo_ibge_estado": 52, "codigo_ibge_municipio": 5205471}}, {"type": "Feature", "geometry": {"type": "Point", "coordinates": [-49.77600098, -16.97200012]}, "properties": {"ddd": 64, "estado": "Goiás", "municipio": "Cezarina", "codigo_ibge_estado": 52, "codigo_ibge_municipio": 5205455}}, {"type": "Feature", "geometry": {"type": "Point", "coordinates": [-49.59799957, -15.30799961]}, "properties": {"ddd": 62, "estado": "Goiás", "municipio": "Ceres", "codigo_ibge_estado": 52, "codigo_ibge_municipio": 5205406}}, {"type": "Feature", "geometry": {"type": "Point", "coordinates": [-47.45800018, -13.79800034]}, "properties": {"ddd": 62, "estado": "Goiás", "municipio": "Cavalcante", "codigo_ibge_estado": 52, "codigo_ibge_municipio": 5205307}}, {"type": "Feature", "geometry": {"type": "Point", "coordinates": [-49.49399948, -16.44700050]}, "properties": {"ddd": 62, "estado": "Goiás", "municipio": "Caturaí", "codigo_ibge_estado": 52, "codigo_ibge_municipio": 5205208}}, {"type": "Feature", "geometry": {"type": "Point", "coordinates": [-47.94200134, -18.17000008]}, "properties": {"ddd": 64, "estado": "Goiás", "municipio": "Catalão", "codigo_ibge_estado": 52, "codigo_ibge_municipio": 5205109}}, {"type": "Feature", "geometry": {"type": "Point", "coordinates": [-50.20100021, -18.09099960]}, "properties": {"ddd": 64, "estado": "Goiás", "municipio": "Castelândia", "codigo_ibge_estado": 52, "codigo_ibge_municipio": 5205059}}, {"type": "Feature", "geometry": {"type": "Point", "coordinates": [-49.70800018, -15.35400009]}, "properties": {"ddd": 62, "estado": "Goiás", "municipio": "Carmo do Rio Verde", "codigo_ibge_estado": 52, "codigo_ibge_municipio": 5205000}}, {"type": "Feature", "geometry": {"type": "Point", "coordinates": [-49.65800095, -14.25800037]}, "properties": {"ddd": 62, "estado": "Goiás", "municipio": "Campos Verdes", "codigo_ibge_estado": 52, "codigo_ibge_municipio": 5204953}}, {"type": "Feature", "geometry": {"type": "Point", "coordinates": [-46.77199936, -13.03699970]}, "properties": {"ddd": 62, "estado": "Goiás", "municipio": "Campos Belos", "codigo_ibge_estado": 52, "codigo_ibge_municipio": 5204904}}, {"type": "Feature", "geometry": {"type": "Point", "coordinates": [-49.08800125, -16.29700089]}, "properties": {"ddd": 62, "estado": "Goiás", "municipio": "Campo Limpo de Goiás", "codigo_ibge_estado": 52, "codigo_ibge_municipio": 5204854}}, {"type": "Feature", "geometry": {"type": "Point", "coordinates": [-47.78200150, -17.63899994]}, "properties": {"ddd": 64, "estado": "Goiás", "municipio": "Campo Alegre de Goiás", "codigo_ibge_estado": 52, "codigo_ibge_municipio": 5204805}}, {"type": "Feature", "geometry": {"type": "Point", "coordinates": [-49.15200043, -14.31400013]}, "properties": {"ddd": 62, "estado": "Goiás", "municipio": "Campinorte", "codigo_ibge_estado": 52, "codigo_ibge_municipio": 5204706}}, {"type": "Feature", "geometry": {"type": "Point", "coordinates": [-48.57099915, -13.78999996]}, "properties": {"ddd": 62, "estado": "Goiás", "municipio": "Campinaçu", "codigo_ibge_estado": 52, "codigo_ibge_municipio": 5204656}}, {"type": "Feature", "geometry": {"type": "Point", "coordinates": [-49.69400024, -16.76199913]}, "properties": {"ddd": 62, "estado": "Goiás", "municipio": "Campestre de Goiás", "codigo_ibge_estado": 52, "codigo_ibge_municipio": 5204607}}, {"type": "Feature", "geometry": {"type": "Point", "coordinates": [-49.00199890, -16.71400070]}, "properties": {"ddd": 62, "estado": "Goiás", "municipio": "Caldazinha", "codigo_ibge_estado": 52, "codigo_ibge_municipio": 5204557}}, {"type": "Feature", "geometry": {"type": "Point", "coordinates": [-48.62599945, -17.74399948]}, "properties": {"ddd": 64, "estado": "Goiás", "municipio": "Caldas Novas", "codigo_ibge_estado": 52, "codigo_ibge_municipio": 5204508}}, {"type": "Feature", "geometry": {"type": "Point", "coordinates": [-51.81000137, -16.95700073]}, "properties": {"ddd": 64, "estado": "Goiás", "municipio": "Caiapônia", "codigo_ibge_estado": 52, "codigo_ibge_municipio": 5204409}}, {"type": "Feature", "geometry": {"type": "Point", "coordinates": [-51.13100052, -18.55699921]}, "properties": {"ddd": 64, "estado": "Goiás", "municipio": "Caçu", "codigo_ibge_estado": 52, "codigo_ibge_municipio": 5204300}}, {"type": "Feature", "geometry": {"type": "Point", "coordinates": [-49.47499847, -18.49200058]}, "properties": {"ddd": 64, "estado": "Goiás", "municipio": "Cachoeira Dourada", "codigo_ibge_estado": 52, "codigo_ibge_municipio": 5204250}}, {"type": "Feature", "geometry": {"type": "Point", "coordinates": [-50.64699936, -16.66799927]}, "properties": {"ddd": 64, "estado": "Goiás", "municipio": "Cachoeira de Goiás", "codigo_ibge_estado": 52, "codigo_ibge_municipio": 5204201}}, {"type": "Feature", "geometry": {"type": "Point", "coordinates": [-50.94200134, -18.76300049]}, "properties": {"ddd": 64, "estado": "Goiás", "municipio": "Cachoeira Alta", "codigo_ibge_estado": 52, "codigo_ibge_municipio": 5204102}}, {"type": "Feature", "geometry": {"type": "Point", "coordinates": [-46.92699814, -15.80099964]}, "properties": {"ddd": 61, "estado": "Goiás", "municipio": "Cabeceiras", "codigo_ibge_estado": 52, "codigo_ibge_municipio": 5204003}}, {"type": "Feature", "geometry": {"type": "Point", "coordinates": [-46.40800095, -14.47900009]}, "properties": {"ddd": 62, "estado": "Goiás", "municipio": "Buritinópolis", "codigo_ibge_estado": 52, "codigo_ibge_municipio": 5203962}}, {"type": "Feature", "geometry": {"type": "Point", "coordinates": [-50.43099976, -16.18099976]}, "properties": {"ddd": 64, "estado": "Goiás", "municipio": "Buriti de Goiás", "codigo_ibge_estado": 52, "codigo_ibge_municipio": 5203939}}, {"type": "Feature", "geometry": {"type": "Point", "coordinates": [-49.04399872, -18.14399910]}, "properties": {"ddd": 64, "estado": "Goiás", "municipio": "Buriti Alegre", "codigo_ibge_estado": 52, "codigo_ibge_municipio": 5203906}}, {"type": "Feature", "geometry": {"type": "Point", "coordinates": [-51.16099930, -15.24100018]}, "properties": {"ddd": 62, "estado": "Goiás", "municipio": "Britânia", "codigo_ibge_estado": 52, "codigo_ibge_municipio": 5203807}}, {"type": "Feature", "geometry": {"type": "Point", "coordinates": [-49.38899994, -16.43099976]}, "properties": {"ddd": 62, "estado": "Goiás", "municipio": "Brazabrantes", "codigo_ibge_estado": 52, "codigo_ibge_municipio": 5203609}}, {"type": "Feature", "geometry": {"type": "Point", "coordinates": [-49.81000137, -13.63599968]}, "properties": {"ddd": 62, "estado": "Goiás", "municipio": "Bonópolis", "codigo_ibge_estado": 52, "codigo_ibge_municipio": 5203575}}, {"type": "Feature", "geometry": {"type": "Point", "coordinates": [-48.96300125, -16.61800003]}, "properties": {"ddd": 62, "estado": "Goiás", "municipio": "Bonfinópolis", "codigo_ibge_estado": 52, "codigo_ibge_municipio": 5203559}}, {"type": "Feature", "geometry": {"type": "Point", "coordinates": [-49.74200058, -18.21500015]}, "properties": {"ddd": 64, "estado": "Goiás", "municipio": "Bom Jesus de Goiás", "codigo_ibge_estado": 52, "codigo_ibge_municipio": 5203500}}, {"type": "Feature", "geometry": {"type": "Point", "coordinates": [-52.17200089, -16.20999908]}, "properties": {"ddd": 64, "estado": "Goiás", "municipio": "Bom Jardim de Goiás", "codigo_ibge_estado": 52, "codigo_ibge_municipio": 5203401}}, {"type": "Feature", "geometry": {"type": "Point", "coordinates": [-48.95299911, -16.97299957]}, "properties": {"ddd": 62, "estado": "Goiás", "municipio": "Bela Vista de Goiás", "codigo_ibge_estado": 52, "codigo_ibge_municipio": 5203302}}, {"type": "Feature", "geometry": {"type": "Point", "coordinates": [-48.91600037, -14.97099972]}, "properties": {"ddd": 62, "estado": "Goiás", "municipio": "Barro Alto", "codigo_ibge_estado": 52, "codigo_ibge_municipio": 5203203}}, {"type": "Feature", "geometry": {"type": "Point", "coordinates": [-52.54499817, -16.19599915]}, "properties": {"ddd": 64, "estado": "Goiás", "municipio": "Baliza", "codigo_ibge_estado": 52, "codigo_ibge_municipio": 5203104}}, {"type": "Feature", "geometry": {"type": "Point", "coordinates": [-49.75799942, -16.46599960]}, "properties": {"ddd": 64, "estado": "Goiás", "municipio": "Avelinópolis", "codigo_ibge_estado": 52, "codigo_ibge_municipio": 5202809}}, {"type": "Feature", "geometry": {"type": "Point", "coordinates": [-50.46500015, -16.68199921]}, "properties": {"ddd": 64, "estado": "Goiás", "municipio": "Aurilândia", "codigo_ibge_estado": 52, "codigo_ibge_municipio": 5202601}}, {"type": "Feature", "geometry": {"type": "Point", "coordinates": [-51.08300018, -14.92000008]}, "properties": {"ddd": 62, "estado": "Goiás", "municipio": "Aruanã", "codigo_ibge_estado": 52, "codigo_ibge_municipio": 5202502}}, {"type": "Feature", "geometry": {"type": "Point", "coordinates": [-51.56000137, -16.38599968]}, "properties": {"ddd": 64, "estado": "Goiás", "municipio": "Arenópolis", "codigo_ibge_estado": 52, "codigo_ibge_municipio": 5202353}}, {"type": "Feature", "geometry": {"type": "Point", "coordinates": [-50.63199997, -15.09099960]}, "properties": {"ddd": 62, "estado": "Goiás", "municipio": "Araguapaz", "codigo_ibge_estado": 52, "codigo_ibge_municipio": 5202155}}, {"type": "Feature", "geometry": {"type": "Point", "coordinates": [-49.45100021, -16.91200066]}, "properties": {"ddd": 62, "estado": "Goiás", "municipio": "Aragoiânia", "codigo_ibge_estado": 52, "codigo_ibge_municipio": 5201801}}, {"type": "Feature", "geometry": {"type": "Point", "coordinates": [-52.25099945, -15.89799976]}, "properties": {"ddd": 64, "estado": "Goiás", "municipio": "Aragarças", "codigo_ibge_estado": 52, "codigo_ibge_municipio": 5201702}}, {"type": "Feature", "geometry": {"type": "Point", "coordinates": [-49.68099976, -16.35799980]}, "properties": {"ddd": 62, "estado": "Goiás", "municipio": "Araçu", "codigo_ibge_estado": 52, "codigo_ibge_municipio": 5201603}}, {"type": "Feature", "geometry": {"type": "Point", "coordinates": [-51.92599869, -18.96500015]}, "properties": {"ddd": 64, "estado": "Goiás", "municipio": "Aporé", "codigo_ibge_estado": 52, "codigo_ibge_municipio": 5201504}}, {"type": "Feature", "geometry": {"type": "Point", "coordinates": [-51.14500046, -18.29899979]}, "properties": {"ddd": 64, "estado": "Goiás", "municipio": "Aparecida do Rio Doce", "codigo_ibge_estado": 52, "codigo_ibge_municipio": 5201454}}, {"type": "Feature", "geometry": {"type": "Point", "coordinates": [-49.24499893, -16.82200050]}, "properties": {"ddd": 62, "estado": "Goiás", "municipio": "Aparecida de Goiânia", "codigo_ibge_estado": 52, "codigo_ibge_municipio": 5201405}}, {"type": "Feature", "geometry": {"type": "Point", "coordinates": [-49.96200180, -16.46100044]}, "properties": {"ddd": 64, "estado": "Goiás", "municipio": "Anicuns", "codigo_ibge_estado": 52, "codigo_ibge_municipio": 5201306}}, {"type": "Feature", "geometry": {"type": "Point", "coordinates": [-48.21900177, -18.33699989]}, "properties": {"ddd": 64, "estado": "Goiás", "municipio": "Anhanguera", "codigo_ibge_estado": 52, "codigo_ibge_municipio": 5201207}}, {"type": "Feature", "geometry": {"type": "Point", "coordinates": [-48.95299911, -16.32699966]}, "properties": {"ddd": 62, "estado": "Goiás", "municipio": "Anápolis", "codigo_ibge_estado": 52, "codigo_ibge_municipio": 5201108}}, {"type": "Feature", "geometry": {"type": "Point", "coordinates": [-51.09400177, -16.61899948]}, "properties": {"ddd": 64, "estado": "Goiás", "municipio": "Amorinópolis", "codigo_ibge_estado": 52, "codigo_ibge_municipio": 5200902}}, {"type": "Feature", "geometry": {"type": "Point", "coordinates": [-49.98300171, -16.25499916]}, "properties": {"ddd": 64, "estado": "Goiás", "municipio": "Americano do Brasil", "codigo_ibge_estado": 52, "codigo_ibge_municipio": 5200852}}, {"type": "Feature", "geometry": {"type": "Point", "coordinates": [-49.29700089, -13.92599964]}, "properties": {"ddd": 62, "estado": "Goiás", "municipio": "Amaralina", "codigo_ibge_estado": 52, "codigo_ibge_municipio": 5200829}}, {"type": "Feature", "geometry": {"type": "Point", "coordinates": [-46.49200058, -14.48099995]}, "properties": {"ddd": 62, "estado": "Goiás", "municipio": "Alvorada do Norte", "codigo_ibge_estado": 52, "codigo_ibge_municipio": 5200803}}, {"type": "Feature", "geometry": {"type": "Point", "coordinates": [-47.50999832, -14.13300037]}, "properties": {"ddd": 62, "estado": "Goiás", "municipio": "Alto Paraíso de Goiás", "codigo_ibge_estado": 52, "codigo_ibge_municipio": 5200605}}, {"type": "Feature", "geometry": {"type": "Point", "coordinates": [-49.33900070, -14.19600010]}, "properties": {"ddd": 62, "estado": "Goiás", "municipio": "Alto Horizonte", "codigo_ibge_estado": 52, "codigo_ibge_municipio": 5200555}}, {"type": "Feature", "geometry": {"type": "Point", "coordinates": [-49.47999954, -17.72800064]}, "properties": {"ddd": 64, "estado": "Goiás", "municipio": "Aloândia", "codigo_ibge_estado": 52, "codigo_ibge_municipio": 5200506}}, {"type": "Feature", "geometry": {"type": "Point", "coordinates": [-48.50699997, -16.08200073]}, "properties": {"ddd": 62, "estado": "Goiás", "municipio": "Alexânia", "codigo_ibge_estado": 52, "codigo_ibge_municipio": 5200308}}, {"type": "Feature", "geometry": {"type": "Point", "coordinates": [-48.28200150, -15.76200008]}, "properties": {"ddd": 61, "estado": "Goiás", "municipio": "Águas Lindas de Goiás", "codigo_ibge_estado": 52, "codigo_ibge_municipio": 5200258}}, {"type": "Feature", "geometry": {"type": "Point", "coordinates": [-48.76200104, -18.07399940]}, "properties": {"ddd": 64, "estado": "Goiás", "municipio": "Água Limpa", "codigo_ibge_estado": 52, "codigo_ibge_municipio": 5200209}}, {"type": "Feature", "geometry": {"type": "Point", "coordinates": [-47.78400040, -14.98600006]}, "properties": {"ddd": 62, "estado": "Goiás", "municipio": "Água Fria de Goiás", "codigo_ibge_estado": 52, "codigo_ibge_municipio": 5200175}}, {"type": "Feature", "geometry": {"type": "Point", "coordinates": [-50.16600037, -16.41500092]}, "properties": {"ddd": 64, "estado": "Goiás", "municipio": "Adelândia", "codigo_ibge_estado": 52, "codigo_ibge_municipio": 5200159}}, {"type": "Feature", "geometry": {"type": "Point", "coordinates": [-50.37699890, -17.39599991]}, "properties": {"ddd": 64, "estado": "Goiás", "municipio": "Acreúna", "codigo_ibge_estado": 52, "codigo_ibge_municipio": 5200134}}, {"type": "Feature", "geometry": {"type": "Point", "coordinates": [-48.70700073, -16.20400047]}, "properties": {"ddd": 62, "estado": "Goiás", "municipio": "Abadiânia", "codigo_ibge_estado": 52, "codigo_ibge_municipio": 5200100}}, {"type": "Feature", "geometry": {"type": "Point", "coordinates": [-49.43799973, -16.75699997]}, "properties": {"ddd": 62, "estado": "Goiás", "municipio": "Abadia de Goiás", "codigo_ibge_estado": 52, "codigo_ibge_municipio": 5200050}}, {"type": "Feature", "geometry": {"type": "Point", "coordinates": [-57.53499985, -9.98200035]}, "properties": {"ddd": 66, "estado": "Mato Grosso", "municipio": "Nova Monte Verde", "codigo_ibge_estado": 51, "codigo_ibge_municipio": 5108956}}, {"type": "Feature", "geometry": {"type": "Point", "coordinates": [-57.07400131, -13.02600002]}, "properties": {"ddd": 66, "estado": "Mato Grosso", "municipio": "Nova Maringá", "codigo_ibge_estado": 51, "codigo_ibge_municipio": 5108907}}, {"type": "Feature", "geometry": {"type": "Point", "coordinates": [-56.96900177, -14.36400032]}, "properties": {"ddd": 65, "estado": "Mato Grosso", "municipio": "Nova Marilândia", "codigo_ibge_estado": 51, "codigo_ibge_municipio": 5108857}}, {"type": "Feature", "geometry": {"type": "Point", "coordinates": [-55.40999985, -10.31599998]}, "properties": {"ddd": 66, "estado": "Mato Grosso", "municipio": "Nova Guarita", "codigo_ibge_estado": 51, "codigo_ibge_municipio": 5108808}}, {"type": "Feature", "geometry": {"type": "Point", "coordinates": [-51.11600113, -10.01200008]}, "properties": {"ddd": 66, "estado": "Mato Grosso", "municipio": "Vila Rica", "codigo_ibge_estado": 51, "codigo_ibge_municipio": 5108600}}, {"type": "Feature", "geometry": {"type": "Point", "coordinates": [-55.31700134, -12.30599976]}, "properties": {"ddd": 66, "estado": "Mato Grosso", "municipio": "Vera", "codigo_ibge_estado": 51, "codigo_ibge_municipio": 5108501}}, {"type": "Feature", "geometry": {"type": "Point", "coordinates": [-56.13299942, -15.64700031]}, "properties": {"ddd": 65, "estado": "Mato Grosso", "municipio": "Várzea Grande", "codigo_ibge_estado": 51, "codigo_ibge_municipio": 5108402}}, {"type": "Feature", "geometry": {"type": "Point", "coordinates": [-59.06100082, -15.29399967]}, "properties": {"ddd": 65, "estado": "Mato Grosso", "municipio": "Vale de São Domingos", "codigo_ibge_estado": 51, "codigo_ibge_municipio": 5108352}}, {"type": "Feature", "geometry": {"type": "Point", "coordinates": [-54.35300064, -11.53299999]}, "properties": {"ddd": 66, "estado": "Mato Grosso", "municipio": "União do Sul", "codigo_ibge_estado": 51, "codigo_ibge_municipio": 5108303}}, {"type": "Feature", "geometry": {"type": "Point", "coordinates": [-52.55599976, -16.19899940]}, "properties": {"ddd": 66, "estado": "Mato Grosso", "municipio": "Torixoréu", "codigo_ibge_estado": 51, "codigo_ibge_municipio": 5108204}}, {"type": "Feature", "geometry": {"type": "Point", "coordinates": [-53.55300140, -16.07900047]}, "properties": {"ddd": 66, "estado": "Mato Grosso", "municipio": "Tesouro", "codigo_ibge_estado": 51, "codigo_ibge_municipio": 5108105}}, {"type": "Feature", "geometry": {"type": "Point", "coordinates": [-55.23099899, -10.51700020]}, "properties": {"ddd": 66, "estado": "Mato Grosso", "municipio": "Terra Nova do Norte", "codigo_ibge_estado": 51, "codigo_ibge_municipio": 5108055}}, {"type": "Feature", "geometry": {"type": "Point", "coordinates": [-56.55400085, -12.77200031]}, "properties": {"ddd": 66, "estado": "Mato Grosso", "municipio": "Tapurah", "codigo_ibge_estado": 51, "codigo_ibge_municipio": 5108006}}, {"type": "Feature", "geometry": {"type": "Point", "coordinates": [-57.48600006, -14.61900043]}, "properties": {"ddd": 65, "estado": "Mato Grosso", "municipio": "Tangará da Serra", "codigo_ibge_estado": 51, "codigo_ibge_municipio": 5107958}}, {"type": "Feature", "geometry": {"type": "Point", "coordinates": [-56.61999893, -10.80700016]}, "properties": {"ddd": 66, "estado": "Mato Grosso", "municipio": "Tabaporã", "codigo_ibge_estado": 51, "codigo_ibge_municipio": 5107941}}, {"type": "Feature", "geometry": {"type": "Point", "coordinates": [-55.71099854, -12.54500008]}, "properties": {"ddd": 66, "estado": "Mato Grosso", "municipio": "Sorriso", "codigo_ibge_estado": 51, "codigo_ibge_municipio": 5107925}}, {"type": "Feature", "geometry": {"type": "Point", "coordinates": [-55.50400162, -11.86400032]}, "properties": {"ddd": 66, "estado": "Mato Grosso", "municipio": "Sinop", "codigo_ibge_estado": 51, "codigo_ibge_municipio": 5107909}}, {"type": "Feature", "geometry": {"type": "Point", "coordinates": [-51.40200043, -12.09200001]}, "properties": {"ddd": 66, "estado": "Mato Grosso", "municipio": "Serra Nova Dourada", "codigo_ibge_estado": 51, "codigo_ibge_municipio": 5107883}}, {"type": "Feature", "geometry": {"type": "Point", "coordinates": [-58.76399994, -12.98900032]}, "properties": {"ddd": 65, "estado": "Mato Grosso", "municipio": "Sapezal", "codigo_ibge_estado": 51, "codigo_ibge_municipio": 5107875}}, {"type": "Feature", "geometry": {"type": "Point", "coordinates": [-50.66899872, -11.61699963]}, "properties": {"ddd": 66, "estado": "Mato Grosso", "municipio": "São Félix do Araguaia", "codigo_ibge_estado": 51, "codigo_ibge_municipio": 5107859}}, {"type": "Feature", "geometry": {"type": "Point", "coordinates": [-56.07699966, -15.86600018]}, "properties": {"ddd": 65, "estado": "Mato Grosso", "municipio": "Santo Antônio do Leverger", "codigo_ibge_estado": 51, "codigo_ibge_municipio": 5107800}}, {"type": "Feature", "geometry": {"type": "Point", "coordinates": [-53.63999939, -14.79599953]}, "properties": {"ddd": 66, "estado": "Mato Grosso", "municipio": "Santo Antônio do Leste", "codigo_ibge_estado": 51, "codigo_ibge_municipio": 5107792}}, {"type": "Feature", "geometry": {"type": "Point", "coordinates": [-50.50299835, -10.47000027]}, "properties": {"ddd": 66, "estado": "Mato Grosso", "municipio": "Santa Terezinha", "codigo_ibge_estado": 51, "codigo_ibge_municipio": 5107776}}, {"type": "Feature", "geometry": {"type": "Point", "coordinates": [-55.26699829, -13.81299973]}, "properties": {"ddd": 65, "estado": "Mato Grosso", "municipio": "Santa Rita do Trivelato", "codigo_ibge_estado": 51, "codigo_ibge_municipio": 5107768}}, {"type": "Feature", "geometry": {"type": "Point", "coordinates": [-58.12699890, -15.13000011]}, "properties": {"ddd": 65, "estado": "Mato Grosso", "municipio": "Salto do Céu", "codigo_ibge_estado": 51, "codigo_ibge_municipio": 5107750}}, {"type": "Feature", "geometry": {"type": "Point", "coordinates": [-52.39199829, -10.15499973]}, "properties": {"ddd": 66, "estado": "Mato Grosso", "municipio": "Santa Cruz do Xingu", "codigo_ibge_estado": 51, "codigo_ibge_municipio": 5107743}}, {"type": "Feature", "geometry": {"type": "Point", "coordinates": [-56.42800140, -14.83600044]}, "properties": {"ddd": 65, "estado": "Mato Grosso", "municipio": "Rosário Oeste", "codigo_ibge_estado": 51, "codigo_ibge_municipio": 5107701}}, {"type": "Feature", "geometry": {"type": "Point", "coordinates": [-54.63600159, -16.47100067]}, "properties": {"ddd": 66, "estado": "Mato Grosso", "municipio": "Rondonópolis", "codigo_ibge_estado": 51, "codigo_ibge_municipio": 5107602}}, {"type": "Feature", "geometry": {"type": "Point", "coordinates": [-61.47100067, -10.83800030]}, "properties": {"ddd": 66, "estado": "Mato Grosso", "municipio": "Rondolândia", "codigo_ibge_estado": 51, "codigo_ibge_municipio": 5107578}}, {"type": "Feature", "geometry": {"type": "Point", "coordinates": [-54.92100143, -16.00099945]}, "properties": {"ddd": 66, "estado": "Mato Grosso", "municipio": "São Pedro da Cipa", "codigo_ibge_estado": 51, "codigo_ibge_municipio": 5107404}}, {"type": "Feature", "geometry": {"type": "Point", "coordinates": [-52.74399948, -10.80399990]}, "properties": {"ddd": 66, "estado": "Mato Grosso", "municipio": "São José do Xingu", "codigo_ibge_estado": 51, "codigo_ibge_municipio": 5107354}}, {"type": "Feature", "geometry": {"type": "Point", "coordinates": [-56.72100067, -13.44699955]}, "properties": {"ddd": 65, "estado": "Mato Grosso", "municipio": "São José do Rio Claro", "codigo_ibge_estado": 51, "codigo_ibge_municipio": 5107305}}, {"type": "Feature", "geometry": {"type": "Point", "coordinates": [-54.25500107, -16.46500015]}, "properties": {"ddd": 66, "estado": "Mato Grosso", "municipio": "São José do Povo", "codigo_ibge_estado": 51, "codigo_ibge_municipio": 5107297}}, {"type": "Feature", "geometry": {"type": "Point", "coordinates": [-57.00199890, -14.49800014]}, "properties": {"ddd": 65, "estado": "Mato Grosso", "municipio": "Santo Afonso", "codigo_ibge_estado": 51, "codigo_ibge_municipio": 5107263}}, {"type": "Feature", "geometry": {"type": "Point", "coordinates": [-55.22600174, -11.91300011]}, "properties": {"ddd": 66, "estado": "Mato Grosso", "municipio": "Santa Carmem", "codigo_ibge_estado": 51, "codigo_ibge_municipio": 5107248}}, {"type": "Feature", "geometry": {"type": "Point", "coordinates": [-58.11600113, -15.24100018]}, "properties": {"ddd": 65, "estado": "Mato Grosso", "municipio": "Rio Branco", "codigo_ibge_estado": 51, "codigo_ibge_municipio": 5107206}}, {"type": "Feature", "geometry": {"type": "Point", "coordinates": [-52.69200134, -16.48500061]}, "properties": {"ddd": 66, "estado": "Mato Grosso", "municipio": "Ribeirãozinho", "codigo_ibge_estado": 51, "codigo_ibge_municipio": 5107198}}, {"type": "Feature", "geometry": {"type": "Point", "coordinates": [-51.82400131, -12.94200039]}, "properties": {"ddd": 66, "estado": "Mato Grosso", "municipio": "Ribeirão Cascalheira", "codigo_ibge_estado": 51, "codigo_ibge_municipio": 5107180}}, {"type": "Feature", "geometry": {"type": "Point", "coordinates": [-58.46599960, -15.07999992]}, "properties": {"ddd": 65, "estado": "Mato Grosso", "municipio": "Reserva do Cabaçal", "codigo_ibge_estado": 51, "codigo_ibge_municipio": 5107156}}, {"type": "Feature", "geometry": {"type": "Point", "coordinates": [-58.17599869, -15.62100029]}, "properties": {"ddd": 65, "estado": "Mato Grosso", "municipio": "São José dos Quatro Marcos", "codigo_ibge_estado": 51, "codigo_ibge_municipio": 5107107}}, {"type": "Feature", "geometry": {"type": "Point", "coordinates": [-52.37799835, -12.47599983]}, "properties": {"ddd": 66, "estado": "Mato Grosso", "municipio": "Querência", "codigo_ibge_estado": 51, "codigo_ibge_municipio": 5107065}}, {"type": "Feature", "geometry": {"type": "Point", "coordinates": [-54.34600067, -15.52799988]}, "properties": {"ddd": 66, "estado": "Mato Grosso", "municipio": "Primavera do Leste", "codigo_ibge_estado": 51, "codigo_ibge_municipio": 5107040}}, {"type": "Feature", "geometry": {"type": "Point", "coordinates": [-57.22800064, -15.32400036]}, "properties": {"ddd": 65, "estado": "Mato Grosso", "municipio": "Porto Estrela", "codigo_ibge_estado": 51, "codigo_ibge_municipio": 5106851}}, {"type": "Feature", "geometry": {"type": "Point", "coordinates": [-58.45999908, -15.85299969]}, "properties": {"ddd": 65, "estado": "Mato Grosso", "municipio": "Porto Esperidião", "codigo_ibge_estado": 51, "codigo_ibge_municipio": 5106828}}, {"type": "Feature", "geometry": {"type": "Point", "coordinates": [-57.41400146, -11.53499985]}, "properties": {"ddd": 66, "estado": "Mato Grosso", "municipio": "Porto dos Gaúchos", "codigo_ibge_estado": 51, "codigo_ibge_municipio": 5106802}}, {"type": "Feature", "geometry": {"type": "Point", "coordinates": [-51.63299942, -10.87800026]}, "properties": {"ddd": 66, "estado": "Mato Grosso", "municipio": "Porto Alegre do Norte", "codigo_ibge_estado": 51, "codigo_ibge_municipio": 5106778}}, {"type": "Feature", "geometry": {"type": "Point", "coordinates": [-59.33499908, -15.22599983]}, "properties": {"ddd": 65, "estado": "Mato Grosso", "municipio": "Pontes e Lacerda", "codigo_ibge_estado": 51, "codigo_ibge_municipio": 5106752}}, {"type": "Feature", "geometry": {"type": "Point", "coordinates": [-52.83300018, -16.76399994]}, "properties": {"ddd": 66, "estado": "Mato Grosso", "municipio": "Ponte Branca", "codigo_ibge_estado": 51, "codigo_ibge_municipio": 5106703}}, {"type": "Feature", "geometry": {"type": "Point", "coordinates": [-52.31700134, -15.93400002]}, "properties": {"ddd": 66, "estado": "Mato Grosso", "municipio": "Pontal do Araguaia", "codigo_ibge_estado": 51, "codigo_ibge_municipio": 5106653}}, {"type": "Feature", "geometry": {"type": "Point", "coordinates": [-56.62300110, -16.25699997]}, "properties": {"ddd": 65, "estado": "Mato Grosso", "municipio": "Poconé", "codigo_ibge_estado": 51, "codigo_ibge_municipio": 5106505}}, {"type": "Feature", "geometry": {"type": "Point", "coordinates": [-54.77399826, -14.65799999]}, "properties": {"ddd": 66, "estado": "Mato Grosso", "municipio": "Planalto da Serra", "codigo_ibge_estado": 51, "codigo_ibge_municipio": 5106455}}, {"type": "Feature", "geometry": {"type": "Point", "coordinates": [-54.98300171, -10.22900009]}, "properties": {"ddd": 66, "estado": "Mato Grosso", "municipio": "Peixoto de Azevedo", "codigo_ibge_estado": 51, "codigo_ibge_municipio": 5106422}}, {"type": "Feature", "geometry": {"type": "Point", "coordinates": [-54.47399902, -16.62299919]}, "properties": {"ddd": 66, "estado": "Mato Grosso", "municipio": "Pedra Preta", "codigo_ibge_estado": 51, "codigo_ibge_municipio": 5106372}}, {"type": "Feature", "geometry": {"type": "Point", "coordinates": [-50.96799850, -12.28999996]}, "properties": {"ddd": 66, "estado": "Mato Grosso", "municipio": "Novo Santo Antônio", "codigo_ibge_estado": 51, "codigo_ibge_municipio": 5106315}}, {"type": "Feature", "geometry": {"type": "Point", "coordinates": [-54.05099869, -14.43200016]}, "properties": {"ddd": 66, "estado": "Mato Grosso", "municipio": "Paranatinga", "codigo_ibge_estado": 51, "codigo_ibge_municipio": 5106307}}, {"type": "Feature", "geometry": {"type": "Point", "coordinates": [-56.47700119, -9.66499996]}, "properties": {"ddd": 66, "estado": "Mato Grosso", "municipio": "Paranaíta", "codigo_ibge_estado": 51, "codigo_ibge_municipio": 5106299}}, {"type": "Feature", "geometry": {"type": "Point", "coordinates": [-53.01800156, -14.90600014]}, "properties": {"ddd": 66, "estado": "Mato Grosso", "municipio": "Novo São Joaquim", "codigo_ibge_estado": 51, "codigo_ibge_municipio": 5106281}}, {"type": "Feature", "geometry": {"type": "Point", "coordinates": [-57.35200119, -11.41300011]}, "properties": {"ddd": 66, "estado": "Mato Grosso", "municipio": "Novo Horizonte do Norte", "codigo_ibge_estado": 51, "codigo_ibge_municipio": 5106273}}, {"type": "Feature", "geometry": {"type": "Point", "coordinates": [-55.19800186, -9.94999981]}, "properties": {"ddd": 66, "estado": "Mato Grosso", "municipio": "Novo Mundo", "codigo_ibge_estado": 51, "codigo_ibge_municipio": 5106265}}, {"type": "Feature", "geometry": {"type": "Point", "coordinates": [-52.35300064, -14.67300034]}, "properties": {"ddd": 66, "estado": "Mato Grosso", "municipio": "Nova Xavantina", "codigo_ibge_estado": 51, "codigo_ibge_municipio": 5106257}}, {"type": "Feature", "geometry": {"type": "Point", "coordinates": [-55.25500107, -12.99100018]}, "properties": {"ddd": 66, "estado": "Mato Grosso", "municipio": "Nova Ubiratã", "codigo_ibge_estado": 51, "codigo_ibge_municipio": 5106240}}, {"type": "Feature", "geometry": {"type": "Point", "coordinates": [-57.28799820, -14.79699993]}, "properties": {"ddd": 65, "estado": "Mato Grosso", "municipio": "Nova Olímpia", "codigo_ibge_estado": 51, "codigo_ibge_municipio": 5106232}}, {"type": "Feature", "geometry": {"type": "Point", "coordinates": [-56.08399963, -13.83800030]}, "properties": {"ddd": 65, "estado": "Mato Grosso", "municipio": "Nova Mutum", "codigo_ibge_estado": 51, "codigo_ibge_municipio": 5106224}}, {"type": "Feature", "geometry": {"type": "Point", "coordinates": [-55.95299911, -10.55799961]}, "properties": {"ddd": 66, "estado": "Mato Grosso", "municipio": "Nova Canaã do Norte", "codigo_ibge_estado": 51, "codigo_ibge_municipio": 5106216}}, {"type": "Feature", "geometry": {"type": "Point", "coordinates": [-54.96599960, -14.95699978]}, "properties": {"ddd": 66, "estado": "Mato Grosso", "municipio": "Nova Brasilândia", "codigo_ibge_estado": 51, "codigo_ibge_municipio": 5106208}}, {"type": "Feature", "geometry": {"type": "Point", "coordinates": [-55.17699814, -10.85200024]}, "properties": {"ddd": 66, "estado": "Mato Grosso", "municipio": "Nova Santa Helena", "codigo_ibge_estado": 51, "codigo_ibge_municipio": 5106190}}, {"type": "Feature", "geometry": {"type": "Point", "coordinates": [-59.60900116, -14.47599983]}, "properties": {"ddd": 65, "estado": "Mato Grosso", "municipio": "Nova Lacerda", "codigo_ibge_estado": 51, "codigo_ibge_municipio": 5106182}}, {"type": "Feature", "geometry": {"type": "Point", "coordinates": [-51.79800034, -13.98999977]}, "properties": {"ddd": 66, "estado": "Mato Grosso", "municipio": "Nova Nazaré", "codigo_ibge_estado": 51, "codigo_ibge_municipio": 5106174}}, {"type": "Feature", "geometry": {"type": "Point", "coordinates": [-57.86199951, -9.81400013]}, "properties": {"ddd": 66, "estado": "Mato Grosso", "municipio": "Nova Bandeirantes", "codigo_ibge_estado": 51, "codigo_ibge_municipio": 5106158}}, {"type": "Feature", "geometry": {"type": "Point", "coordinates": [-56.34600067, -15.77499962]}, "properties": {"ddd": 65, "estado": "Mato Grosso", "municipio": "Nossa Senhora do Livramento", "codigo_ibge_estado": 51, "codigo_ibge_municipio": 5106109}}, {"type": "Feature", "geometry": {"type": "Point", "coordinates": [-56.80300140, -14.45499992]}, "properties": {"ddd": 65, "estado": "Mato Grosso", "municipio": "Nortelândia", "codigo_ibge_estado": 51, "codigo_ibge_municipio": 5106000}}, {"type": "Feature", "geometry": {"type": "Point", "coordinates": [-56.32799911, -14.72000027]}, "properties": {"ddd": 65, "estado": "Mato Grosso", "municipio": "Nobres", "codigo_ibge_estado": 51, "codigo_ibge_municipio": 5105903}}, {"type": "Feature", "geometry": {"type": "Point", "coordinates": [-54.93299866, -10.05700016]}, "properties": {"ddd": 66, "estado": "Mato Grosso", "municipio": "Matupá", "codigo_ibge_estado": 51, "codigo_ibge_municipio": 5105606}}, {"type": "Feature", "geometry": {"type": "Point", "coordinates": [-54.59700012, -11.13300037]}, "properties": {"ddd": 66, "estado": "Mato Grosso", "municipio": "Marcelândia", "codigo_ibge_estado": 51, "codigo_ibge_municipio": 5105580}}, {"type": "Feature", "geometry": {"type": "Point", "coordinates": [-59.95100021, -15.00800037]}, "properties": {"ddd": 65, "estado": "Mato Grosso", "municipio": "Vila Bela da Santíssima Trindade", "codigo_ibge_estado": 51, "codigo_ibge_municipio": 5105507}}, {"type": "Feature", "geometry": {"type": "Point", "coordinates": [-50.66899872, -11.22200012]}, "properties": {"ddd": 66, "estado": "Mato Grosso", "municipio": "Luciara", "codigo_ibge_estado": 51, "codigo_ibge_municipio": 5105309}}, {"type": "Feature", "geometry": {"type": "Point", "coordinates": [-55.91099930, -13.05000019]}, "properties": {"ddd": 65, "estado": "Mato Grosso", "municipio": "Lucas do Rio Verde", "codigo_ibge_estado": 51, "codigo_ibge_municipio": 5105259}}, {"type": "Feature", "geometry": {"type": "Point", "coordinates": [-54.88399887, -16.05100060]}, "properties": {"ddd": 66, "estado": "Mato Grosso", "municipio": "Juscimeira", "codigo_ibge_estado": 51, "codigo_ibge_municipio": 5105200}}, {"type": "Feature", "geometry": {"type": "Point", "coordinates": [-58.35900116, -10.31799984]}, "properties": {"ddd": 66, "estado": "Mato Grosso", "municipio": "Juruena", "codigo_ibge_estado": 51, "codigo_ibge_municipio": 5105176}}, {"type": "Feature", "geometry": {"type": "Point", "coordinates": [-58.74100113, -11.37800026]}, "properties": {"ddd": 66, "estado": "Mato Grosso", "municipio": "Juína", "codigo_ibge_estado": 51, "codigo_ibge_municipio": 5105150}}, {"type": "Feature", "geometry": {"type": "Point", "coordinates": [-57.52000046, -11.25500011]}, "properties": {"ddd": 66, "estado": "Mato Grosso", "municipio": "Juara", "codigo_ibge_estado": 51, "codigo_ibge_municipio": 5105101}}, {"type": "Feature", "geometry": {"type": "Point", "coordinates": [-58.86600113, -15.34200001]}, "properties": {"ddd": 65, "estado": "Mato Grosso", "municipio": "Jauru", "codigo_ibge_estado": 51, "codigo_ibge_municipio": 5105002}}, {"type": "Feature", "geometry": {"type": "Point", "coordinates": [-56.48899841, -15.23600006]}, "properties": {"ddd": 65, "estado": "Mato Grosso", "municipio": "Jangada", "codigo_ibge_estado": 51, "codigo_ibge_municipio": 5104906}}, {"type": "Feature", "geometry": {"type": "Point", "coordinates": [-54.96799850, -15.96500015]}, "properties": {"ddd": 66, "estado": "Mato Grosso", "municipio": "Jaciara", "codigo_ibge_estado": 51, "codigo_ibge_municipio": 5104807}}, {"type": "Feature", "geometry": {"type": "Point", "coordinates": [-54.15000153, -17.20899963]}, "properties": {"ddd": 65, "estado": "Mato Grosso", "municipio": "Itiquira", "codigo_ibge_estado": 51, "codigo_ibge_municipio": 5104609}}, {"type": "Feature", "geometry": {"type": "Point", "coordinates": [-55.27600098, -11.06200027]}, "properties": {"ddd": 66, "estado": "Mato Grosso", "municipio": "Itaúba", "codigo_ibge_estado": 51, "codigo_ibge_municipio": 5104559}}, {"type": "Feature", "geometry": {"type": "Point", "coordinates": [-56.68000031, -12.17199993]}, "properties": {"ddd": 66, "estado": "Mato Grosso", "municipio": "Itanhangá", "codigo_ibge_estado": 51, "codigo_ibge_municipio": 5104542}}, {"type": "Feature", "geometry": {"type": "Point", "coordinates": [-56.14599991, -12.24100018]}, "properties": {"ddd": 65, "estado": "Mato Grosso", "municipio": "Ipiranga do Norte", "codigo_ibge_estado": 51, "codigo_ibge_municipio": 5104526}}, {"type": "Feature", "geometry": {"type": "Point", "coordinates": [-58.57300186, -15.49400043]}, "properties": {"ddd": 65, "estado": "Mato Grosso", "municipio": "Indiavaí", "codigo_ibge_estado": 51, "codigo_ibge_municipio": 5104500}}, {"type": "Feature", "geometry": {"type": "Point", "coordinates": [-53.75799942, -16.34900093]}, "properties": {"ddd": 66, "estado": "Mato Grosso", "municipio": "Guiratinga", "codigo_ibge_estado": 51, "codigo_ibge_municipio": 5104203}}, {"type": "Feature", "geometry": {"type": "Point", "coordinates": [-54.90999985, -9.78800011]}, "properties": {"ddd": 66, "estado": "Mato Grosso", "municipio": "Guarantã do Norte", "codigo_ibge_estado": 51, "codigo_ibge_municipio": 5104104}}, {"type": "Feature", "geometry": {"type": "Point", "coordinates": [-52.75500107, -15.71100044]}, "properties": {"ddd": 66, "estado": "Mato Grosso", "municipio": "General Carneiro", "codigo_ibge_estado": 51, "codigo_ibge_municipio": 5103908}}, {"type": "Feature", "geometry": {"type": "Point", "coordinates": [-53.08000183, -13.24199963]}, "properties": {"ddd": 66, "estado": "Mato Grosso", "municipio": "Gaúcha do Norte", "codigo_ibge_estado": 51, "codigo_ibge_municipio": 5103858}}, {"type": "Feature", "geometry": {"type": "Point", "coordinates": [-54.91999817, -12.38599968]}, "properties": {"ddd": 66, "estado": "Mato Grosso", "municipio": "Feliz Natal", "codigo_ibge_estado": 51, "codigo_ibge_municipio": 5103700}}, {"type": "Feature", "geometry": {"type": "Point", "coordinates": [-54.91799927, -15.81099987]}, "properties": {"ddd": 66, "estado": "Mato Grosso", "municipio": "Dom Aquino", "codigo_ibge_estado": 51, "codigo_ibge_municipio": 5103601}}, {"type": "Feature", "geometry": {"type": "Point", "coordinates": [-56.44599915, -14.40900040]}, "properties": {"ddd": 65, "estado": "Mato Grosso", "municipio": "Diamantino", "codigo_ibge_estado": 51, "codigo_ibge_municipio": 5103502}}, {"type": "Feature", "geometry": {"type": "Point", "coordinates": [-57.05400085, -14.73999977]}, "properties": {"ddd": 65, "estado": "Mato Grosso", "municipio": "Denise", "codigo_ibge_estado": 51, "codigo_ibge_municipio": 5103452}}, {"type": "Feature", "geometry": {"type": "Point", "coordinates": [-57.91500092, -15.60799980]}, "properties": {"ddd": 65, "estado": "Mato Grosso", "municipio": "Curvelândia", "codigo_ibge_estado": 51, "codigo_ibge_municipio": 5103437}}, {"type": "Feature", "geometry": {"type": "Point", "coordinates": [-56.09700012, -15.59599972]}, "properties": {"ddd": 65, "estado": "Mato Grosso", "municipio": "Cuiabá", "codigo_ibge_estado": 51, "codigo_ibge_municipio": 5103403}}, {"type": "Feature", "geometry": {"type": "Point", "coordinates": [-58.41400146, -9.85799980]}, "properties": {"ddd": 66, "estado": "Mato Grosso", "municipio": "Cotriguaçu", "codigo_ibge_estado": 51, "codigo_ibge_municipio": 5103379}}, {"type": "Feature", "geometry": {"type": "Point", "coordinates": [-51.56900024, -10.64400005]}, "properties": {"ddd": 66, "estado": "Mato Grosso", "municipio": "Confresa", "codigo_ibge_estado": 51, "codigo_ibge_municipio": 5103353}}, {"type": "Feature", "geometry": {"type": "Point", "coordinates": [-59.78599930, -13.66300011]}, "properties": {"ddd": 65, "estado": "Mato Grosso", "municipio": "Comodoro", "codigo_ibge_estado": 51, "codigo_ibge_municipio": 5103304}}, {"type": "Feature", "geometry": {"type": "Point", "coordinates": [-59.22900009, -9.45600033]}, "properties": {"ddd": 66, "estado": "Mato Grosso", "municipio": "Colniza", "codigo_ibge_estado": 51, "codigo_ibge_municipio": 5103254}}, {"type": "Feature", "geometry": {"type": "Point", "coordinates": [-55.45500183, -10.81299973]}, "properties": {"ddd": 66, "estado": "Mato Grosso", "municipio": "Colíder", "codigo_ibge_estado": 51, "codigo_ibge_municipio": 5103205}}, {"type": "Feature", "geometry": {"type": "Point", "coordinates": [-50.99599838, -14.39700031]}, "properties": {"ddd": 66, "estado": "Mato Grosso", "municipio": "Cocalinho", "codigo_ibge_estado": 51, "codigo_ibge_municipio": 5103106}}, {"type": "Feature", "geometry": {"type": "Point", "coordinates": [-54.89099884, -11.51500034]}, "properties": {"ddd": 66, "estado": "Mato Grosso", "municipio": "Cláudia", "codigo_ibge_estado": 51, "codigo_ibge_municipio": 5103056}}, {"type": "Feature", "geometry": {"type": "Point", "coordinates": [-55.75000000, -15.46100044]}, "properties": {"ddd": 65, "estado": "Mato Grosso", "municipio": "Chapada dos Guimarães", "codigo_ibge_estado": 51, "codigo_ibge_municipio": 5103007}}, {"type": "Feature", "geometry": {"type": "Point", "coordinates": [-58.60300064, -11.13300037]}, "properties": {"ddd": 66, "estado": "Mato Grosso", "municipio": "Castanheira", "codigo_ibge_estado": 51, "codigo_ibge_municipio": 5102850}}, {"type": "Feature", "geometry": {"type": "Point", "coordinates": [-55.83200073, -9.95800018]}, "properties": {"ddd": 66, "estado": "Mato Grosso", "municipio": "Carlinda", "codigo_ibge_estado": 51, "codigo_ibge_municipio": 5102793}}, {"type": "Feature", "geometry": {"type": "Point", "coordinates": [-52.16600037, -13.55000019]}, "properties": {"ddd": 66, "estado": "Mato Grosso", "municipio": "Canarana", "codigo_ibge_estado": 51, "codigo_ibge_municipio": 5102702}}, {"type": "Feature", "geometry": {"type": "Point", "coordinates": [-51.83100128, -11.05399990]}, "properties": {"ddd": 66, "estado": "Mato Grosso", "municipio": "Canabrava do Norte", "codigo_ibge_estado": 51, "codigo_ibge_municipio": 5102694}}, {"type": "Feature", "geometry": {"type": "Point", "coordinates": [-59.14799881, -13.89900017]}, "properties": {"ddd": 65, "estado": "Mato Grosso", "municipio": "Campos de Júlio", "codigo_ibge_estado": 51, "codigo_ibge_municipio": 5102686}}, {"type": "Feature", "geometry": {"type": "Point", "coordinates": [-55.16899872, -15.54699993]}, "properties": {"ddd": 66, "estado": "Mato Grosso", "municipio": "Campo Verde", "codigo_ibge_estado": 51, "codigo_ibge_municipio": 5102678}}, {"type": "Feature", "geometry": {"type": "Point", "coordinates": [-57.89199829, -13.67500019]}, "properties": {"ddd": 65, "estado": "Mato Grosso", "municipio": "Campo Novo do Parecis", "codigo_ibge_estado": 51, "codigo_ibge_municipio": 5102637}}, {"type": "Feature", "geometry": {"type": "Point", "coordinates": [-52.89500046, -14.51599979]}, "properties": {"ddd": 66, "estado": "Mato Grosso", "municipio": "Campinápolis", "codigo_ibge_estado": 51, "codigo_ibge_municipio": 5102603}}, {"type": "Feature", "geometry": {"type": "Point", "coordinates": [-57.67900085, -16.07099915]}, "properties": {"ddd": 65, "estado": "Mato Grosso", "municipio": "Cáceres", "codigo_ibge_estado": 51, "codigo_ibge_municipio": 5102504}}, {"type": "Feature", "geometry": {"type": "Point", "coordinates": [-57.97900009, -12.15499973]}, "properties": {"ddd": 66, "estado": "Mato Grosso", "municipio": "Brasnorte", "codigo_ibge_estado": 51, "codigo_ibge_municipio": 5101902}}, {"type": "Feature", "geometry": {"type": "Point", "coordinates": [-51.50299835, -12.17500019]}, "properties": {"ddd": 66, "estado": "Mato Grosso", "municipio": "Bom Jesus do Araguaia", "codigo_ibge_estado": 51, "codigo_ibge_municipio": 5101852}}, {"type": "Feature", "geometry": {"type": "Point", "coordinates": [-52.25699997, -15.89000034]}, "properties": {"ddd": 66, "estado": "Mato Grosso", "municipio": "Barra do Garças", "codigo_ibge_estado": 51, "codigo_ibge_municipio": 5101803}}, {"type": "Feature", "geometry": {"type": "Point", "coordinates": [-57.18099976, -15.07299995]}, "properties": {"ddd": 65, "estado": "Mato Grosso", "municipio": "Barra do Bugres", "codigo_ibge_estado": 51, "codigo_ibge_municipio": 5101704}}, {"type": "Feature", "geometry": {"type": "Point", "coordinates": [-55.95800018, -16.27899933]}, "properties": {"ddd": 65, "estado": "Mato Grosso", "municipio": "Barão de Melgaço", "codigo_ibge_estado": 51, "codigo_ibge_municipio": 5101605}}, {"type": "Feature", "geometry": {"type": "Point", "coordinates": [-59.45899963, -10.16699982]}, "properties": {"ddd": 66, "estado": "Mato Grosso", "municipio": "Aripuanã", "codigo_ibge_estado": 51, "codigo_ibge_municipio": 5101407}}, {"type": "Feature", "geometry": {"type": "Point", "coordinates": [-56.84600067, -14.44999981]}, "properties": {"ddd": 65, "estado": "Mato Grosso", "municipio": "Arenápolis", "codigo_ibge_estado": 51, "codigo_ibge_municipio": 5101308}}, {"type": "Feature", "geometry": {"type": "Point", "coordinates": [-58.35300064, -15.47099972]}, "properties": {"ddd": 65, "estado": "Mato Grosso", "municipio": "Araputanga", "codigo_ibge_estado": 51, "codigo_ibge_municipio": 5101258}}, {"type": "Feature", "geometry": {"type": "Point", "coordinates": [-53.03300095, -16.85600090]}, "properties": {"ddd": 66, "estado": "Mato Grosso", "municipio": "Araguainha", "codigo_ibge_estado": 51, "codigo_ibge_municipio": 5101209}}, {"type": "Feature", "geometry": {"type": "Point", "coordinates": [-51.83100128, -15.73400021]}, "properties": {"ddd": 66, "estado": "Mato Grosso", "municipio": "Araguaiana", "codigo_ibge_estado": 51, "codigo_ibge_municipio": 5101001}}, {"type": "Feature", "geometry": {"type": "Point", "coordinates": [-57.44900131, -9.54399967]}, "properties": {"ddd": 66, "estado": "Mato Grosso", "municipio": "Apiacás", "codigo_ibge_estado": 51, "codigo_ibge_municipio": 5100805}}, {"type": "Feature", "geometry": {"type": "Point", "coordinates": [-53.28200150, -17.82600021]}, "properties": {"ddd": 66, "estado": "Mato Grosso", "municipio": "Alto Taquari", "codigo_ibge_estado": 51, "codigo_ibge_municipio": 5100607}}, {"type": "Feature", "geometry": {"type": "Point", "coordinates": [-56.48300171, -14.51399994]}, "properties": {"ddd": 65, "estado": "Mato Grosso", "municipio": "Alto Paraguai", "codigo_ibge_estado": 51, "codigo_ibge_municipio": 5100508}}, {"type": "Feature", "geometry": {"type": "Point", "coordinates": [-53.52799988, -16.94400024]}, "properties": {"ddd": 66, "estado": "Mato Grosso", "municipio": "Alto Garças", "codigo_ibge_estado": 51, "codigo_ibge_municipio": 5100409}}, {"type": "Feature", "geometry": {"type": "Point", "coordinates": [-51.38800049, -11.67399979]}, "properties": {"ddd": 66, "estado": "Mato Grosso", "municipio": "Alto Boa Vista", "codigo_ibge_estado": 51, "codigo_ibge_municipio": 5100359}}, {"type": "Feature", "geometry": {"type": "Point", "coordinates": [-53.21500015, -17.31500053]}, "properties": {"ddd": 66, "estado": "Mato Grosso", "municipio": "Alto Araguaia", "codigo_ibge_estado": 51, "codigo_ibge_municipio": 5100300}}, {"type": "Feature", "geometry": {"type": "Point", "coordinates": [-56.08599854, -9.87600040]}, "properties": {"ddd": 66, "estado": "Mato Grosso", "municipio": "Alta Floresta", "codigo_ibge_estado": 51, "codigo_ibge_municipio": 5100250}}, {"type": "Feature", "geometry": {"type": "Point", "coordinates": [-52.15900040, -14.05000019]}, "properties": {"ddd": 66, "estado": "Mato Grosso", "municipio": "Água Boa", "codigo_ibge_estado": 51, "codigo_ibge_municipio": 5100201}}, {"type": "Feature", "geometry": {"type": "Point", "coordinates": [-56.36600113, -15.20499992]}, "properties": {"ddd": 65, "estado": "Mato Grosso", "municipio": "Acorizal", "codigo_ibge_estado": 51, "codigo_ibge_municipio": 5100102}}, {"type": "Feature", "geometry": {"type": "Point", "coordinates": [-54.43600082, -22.40900040]}, "properties": {"ddd": 67, "estado": "Mato Grosso do Sul", "municipio": "Vicentina", "codigo_ibge_estado": 50, "codigo_ibge_municipio": 5008404}}, {"type": "Feature", "geometry": {"type": "Point", "coordinates": [-51.67800140, -20.75099945]}, "properties": {"ddd": 67, "estado": "Mato Grosso do Sul", "municipio": "Três Lagoas", "codigo_ibge_estado": 50, "codigo_ibge_municipio": 5008305}}, {"type": "Feature", "geometry": {"type": "Point", "coordinates": [-54.86000061, -20.44199944]}, "properties": {"ddd": 67, "estado": "Mato Grosso do Sul", "municipio": "Terenos", "codigo_ibge_estado": 50, "codigo_ibge_municipio": 5008008}}, {"type": "Feature", "geometry": {"type": "Point", "coordinates": [-53.35100174, -22.48800087]}, "properties": {"ddd": 67, "estado": "Mato Grosso do Sul", "municipio": "Taquarussu", "codigo_ibge_estado": 50, "codigo_ibge_municipio": 5007976}}, {"type": "Feature", "geometry": {"type": "Point", "coordinates": [-55.01599884, -23.63299942]}, "properties": {"ddd": 67, "estado": "Mato Grosso do Sul", "municipio": "Tacuru", "codigo_ibge_estado": 50, "codigo_ibge_municipio": 5007950}}, {"type": "Feature", "geometry": {"type": "Point", "coordinates": [-54.75799942, -17.57699966]}, "properties": {"ddd": 67, "estado": "Mato Grosso do Sul", "municipio": "Sonora", "codigo_ibge_estado": 50, "codigo_ibge_municipio": 5007935}}, {"type": "Feature", "geometry": {"type": "Point", "coordinates": [-54.96099854, -20.93199921]}, "properties": {"ddd": 67, "estado": "Mato Grosso do Sul", "municipio": "Sidrolândia", "codigo_ibge_estado": 50, "codigo_ibge_municipio": 5007901}}, {"type": "Feature", "geometry": {"type": "Point", "coordinates": [-51.41899872, -20.36700058]}, "properties": {"ddd": 67, "estado": "Mato Grosso do Sul", "municipio": "Selvíria", "codigo_ibge_estado": 50, "codigo_ibge_municipio": 5007802}}, {"type": "Feature", "geometry": {"type": "Point", "coordinates": [-55.03599930, -23.96999931]}, "properties": {"ddd": 67, "estado": "Mato Grosso do Sul", "municipio": "Sete Quedas", "codigo_ibge_estado": 50, "codigo_ibge_municipio": 5007703}}, {"type": "Feature", "geometry": {"type": "Point", "coordinates": [-54.56600189, -19.39500046]}, "properties": {"ddd": 67, "estado": "Mato Grosso do Sul", "municipio": "São Gabriel do Oeste", "codigo_ibge_estado": 50, "codigo_ibge_municipio": 5007695}}, {"type": "Feature", "geometry": {"type": "Point", "coordinates": [-52.83100128, -21.30299950]}, "properties": {"ddd": 67, "estado": "Mato Grosso do Sul", "municipio": "Santa Rita do Pardo", "codigo_ibge_estado": 50, "codigo_ibge_municipio": 5007554}}, {"type": "Feature", "geometry": {"type": "Point", "coordinates": [-54.89300156, -19.95299911]}, "properties": {"ddd": 67, "estado": "Mato Grosso do Sul", "municipio": "Rochedo", "codigo_ibge_estado": 50, "codigo_ibge_municipio": 5007505}}, {"type": "Feature", "geometry": {"type": "Point", "coordinates": [-54.84400177, -18.91799927]}, "properties": {"ddd": 67, "estado": "Mato Grosso do Sul", "municipio": "Rio Verde de Mato Grosso", "codigo_ibge_estado": 50, "codigo_ibge_municipio": 5007406}}, {"type": "Feature", "geometry": {"type": "Point", "coordinates": [-54.98699951, -19.44899940]}, "properties": {"ddd": 67, "estado": "Mato Grosso do Sul", "municipio": "Rio Negro", "codigo_ibge_estado": 50, "codigo_ibge_municipio": 5007307}}, {"type": "Feature", "geometry": {"type": "Point", "coordinates": [-54.54600143, -21.80200005]}, "properties": {"ddd": 67, "estado": "Mato Grosso do Sul", "municipio": "Rio Brilhante", "codigo_ibge_estado": 50, "codigo_ibge_municipio": 5007208}}, {"type": "Feature", "geometry": {"type": "Point", "coordinates": [-53.75899887, -20.44300079]}, "properties": {"ddd": 67, "estado": "Mato Grosso do Sul", "municipio": "Ribas do Rio Pardo", "codigo_ibge_estado": 50, "codigo_ibge_municipio": 5007109}}, {"type": "Feature", "geometry": {"type": "Point", "coordinates": [-57.88299942, -21.69899940]}, "properties": {"ddd": 67, "estado": "Mato Grosso do Sul", "municipio": "Porto Murtinho", "codigo_ibge_estado": 50, "codigo_ibge_municipio": 5006903}}, {"type": "Feature", "geometry": {"type": "Point", "coordinates": [-55.72600174, -22.53599930]}, "properties": {"ddd": 67, "estado": "Mato Grosso do Sul", "municipio": "Ponta Porã", "codigo_ibge_estado": 50, "codigo_ibge_municipio": 5006606}}, {"type": "Feature", "geometry": {"type": "Point", "coordinates": [-54.55199814, -18.10099983]}, "properties": {"ddd": 67, "estado": "Mato Grosso do Sul", "municipio": "Pedro Gomes", "codigo_ibge_estado": 50, "codigo_ibge_municipio": 5006408}}, {"type": "Feature", "geometry": {"type": "Point", "coordinates": [-55.43099976, -23.89299965]}, "properties": {"ddd": 67, "estado": "Mato Grosso do Sul", "municipio": "Paranhos", "codigo_ibge_estado": 50, "codigo_ibge_municipio": 5006358}}, {"type": "Feature", "geometry": {"type": "Point", "coordinates": [-51.19100189, -19.67700005]}, "properties": {"ddd": 67, "estado": "Mato Grosso do Sul", "municipio": "Paranaíba", "codigo_ibge_estado": 50, "codigo_ibge_municipio": 5006309}}, {"type": "Feature", "geometry": {"type": "Point", "coordinates": [-53.86000061, -22.66900063]}, "properties": {"ddd": 67, "estado": "Mato Grosso do Sul", "municipio": "Novo Horizonte do Sul", "codigo_ibge_estado": 50, "codigo_ibge_municipio": 5006259}}, {"type": "Feature", "geometry": {"type": "Point", "coordinates": [-53.34299850, -22.23299980]}, "properties": {"ddd": 67, "estado": "Mato Grosso do Sul", "municipio": "Nova Andradina", "codigo_ibge_estado": 50, "codigo_ibge_municipio": 5006200}}, {"type": "Feature", "geometry": {"type": "Point", "coordinates": [-54.38399887, -21.46599960]}, "properties": {"ddd": 67, "estado": "Mato Grosso do Sul", "municipio": "Nova Alvorada do Sul", "codigo_ibge_estado": 50, "codigo_ibge_municipio": 5006002}}, {"type": "Feature", "geometry": {"type": "Point", "coordinates": [-55.83000183, -21.13500023]}, "properties": {"ddd": 67, "estado": "Mato Grosso do Sul", "municipio": "Nioaque", "codigo_ibge_estado": 50, "codigo_ibge_municipio": 5005806}}, {"type": "Feature", "geometry": {"type": "Point", "coordinates": [-54.19100189, -23.06500053]}, "properties": {"ddd": 67, "estado": "Mato Grosso do Sul", "municipio": "Naviraí", "codigo_ibge_estado": 50, "codigo_ibge_municipio": 5005707}}, {"type": "Feature", "geometry": {"type": "Point", "coordinates": [-54.27099991, -23.93799973]}, "properties": {"ddd": 67, "estado": "Mato Grosso do Sul", "municipio": "Mundo Novo", "codigo_ibge_estado": 50, "codigo_ibge_municipio": 5005681}}, {"type": "Feature", "geometry": {"type": "Point", "coordinates": [-56.37799835, -20.24099922]}, "properties": {"ddd": 67, "estado": "Mato Grosso do Sul", "municipio": "Miranda", "codigo_ibge_estado": 50, "codigo_ibge_municipio": 5005608}}, {"type": "Feature", "geometry": {"type": "Point", "coordinates": [-55.16799927, -21.61400032]}, "properties": {"ddd": 67, "estado": "Mato Grosso do Sul", "municipio": "Maracaju", "codigo_ibge_estado": 50, "codigo_ibge_municipio": 5005400}}, {"type": "Feature", "geometry": {"type": "Point", "coordinates": [-55.15000153, -22.54599953]}, "properties": {"ddd": 67, "estado": "Mato Grosso do Sul", "municipio": "Laguna Carapã", "codigo_ibge_estado": 50, "codigo_ibge_municipio": 5005251}}, {"type": "Feature", "geometry": {"type": "Point", "coordinates": [-57.60200119, -19.00499916]}, "properties": {"ddd": 67, "estado": "Mato Grosso do Sul", "municipio": "Ladário", "codigo_ibge_estado": 50, "codigo_ibge_municipio": 5005202}}, {"type": "Feature", "geometry": {"type": "Point", "coordinates": [-54.60300064, -22.86100006]}, "properties": {"ddd": 67, "estado": "Mato Grosso do Sul", "municipio": "Juti", "codigo_ibge_estado": 50, "codigo_ibge_municipio": 5005152}}, {"type": "Feature", "geometry": {"type": "Point", "coordinates": [-54.30300140, -22.48200035]}, "properties": {"ddd": 67, "estado": "Mato Grosso do Sul", "municipio": "Jateí", "codigo_ibge_estado": 50, "codigo_ibge_municipio": 5005103}}, {"type": "Feature", "geometry": {"type": "Point", "coordinates": [-56.13800049, -21.47999954]}, "properties": {"ddd": 67, "estado": "Mato Grosso do Sul", "municipio": "Jardim", "codigo_ibge_estado": 50, "codigo_ibge_municipio": 5005004}}, {"type": "Feature", "geometry": {"type": "Point", "coordinates": [-54.39899826, -20.14200020]}, "properties": {"ddd": 67, "estado": "Mato Grosso do Sul", "municipio": "Jaraguari", "codigo_ibge_estado": 50, "codigo_ibge_municipio": 5004908}}, {"type": "Feature", "geometry": {"type": "Point", "coordinates": [-54.40399933, -23.89100075]}, "properties": {"ddd": 67, "estado": "Mato Grosso do Sul", "municipio": "Japorã", "codigo_ibge_estado": 50, "codigo_ibge_municipio": 5004809}}, {"type": "Feature", "geometry": {"type": "Point", "coordinates": [-53.81499863, -22.30500031]}, "properties": {"ddd": 67, "estado": "Mato Grosso do Sul", "municipio": "Ivinhema", "codigo_ibge_estado": 50, "codigo_ibge_municipio": 5004700}}, {"type": "Feature", "geometry": {"type": "Point", "coordinates": [-54.18500137, -23.47400093]}, "properties": {"ddd": 67, "estado": "Mato Grosso do Sul", "municipio": "Itaquiraí", "codigo_ibge_estado": 50, "codigo_ibge_municipio": 5004601}}, {"type": "Feature", "geometry": {"type": "Point", "coordinates": [-54.78900146, -22.07900047]}, "properties": {"ddd": 67, "estado": "Mato Grosso do Sul", "municipio": "Itaporã", "codigo_ibge_estado": 50, "codigo_ibge_municipio": 5004502}}, {"type": "Feature", "geometry": {"type": "Point", "coordinates": [-51.93000031, -19.72599983]}, "properties": {"ddd": 67, "estado": "Mato Grosso do Sul", "municipio": "Inocência", "codigo_ibge_estado": 50, "codigo_ibge_municipio": 5004403}}, {"type": "Feature", "geometry": {"type": "Point", "coordinates": [-54.56100082, -23.68000031]}, "properties": {"ddd": 67, "estado": "Mato Grosso do Sul", "municipio": "Iguatemi", "codigo_ibge_estado": 50, "codigo_ibge_municipio": 5004304}}, {"type": "Feature", "geometry": {"type": "Point", "coordinates": [-56.11399841, -21.45800018]}, "properties": {"ddd": 67, "estado": "Mato Grosso do Sul", "municipio": "Guia Lopes da Laguna", "codigo_ibge_estado": 50, "codigo_ibge_municipio": 5004106}}, {"type": "Feature", "geometry": {"type": "Point", "coordinates": [-54.23300171, -22.41799927]}, "properties": {"ddd": 67, "estado": "Mato Grosso do Sul", "municipio": "Glória de Dourados", "codigo_ibge_estado": 50, "codigo_ibge_municipio": 5004007}}, {"type": "Feature", "geometry": {"type": "Point", "coordinates": [-53.63100052, -18.68600082]}, "properties": {"ddd": 67, "estado": "Mato Grosso do Sul", "municipio": "Figueirão", "codigo_ibge_estado": 50, "codigo_ibge_municipio": 5003900}}, {"type": "Feature", "geometry": {"type": "Point", "coordinates": [-54.51399994, -22.37400055]},